~Version Information Block
 VERS.                2.00:     CWLS LOG ASCII STANDARD - VERSION 2.000000
 WRAP.                  NO:     One Line Per Depth Step
#
~Well Information Block
#MNEM.UNIT                     Data                         Information
#----------   ------------------------------------------   ----------------
 STRT.FT                                      150.0000:     START DEPTH
 STOP.FT                                     5250.0000:     STOP DEPTH
 STEP.FT                                        0.5000:     STEP
 NULL.                                       -999.2500:     NULL VALUE
 COMP.           BELDEN & BLAKE & CO LMTD. PARTN. #10A:     COMPANY
 WELL.                                      HICKORY #4:     WELL
 FLD .                                        MAGNOLIA:     FIELD
 LOC .             500'FSL & 500' FWL INSE/Q ON SEC 34:     LOCATION
 LAT .                                    40.611212268:     LATITUDE
 LONG.                                  -81.3085905865:     LONGITUDE
 GDAT.                                           NAD83:     GeoDetic Datum
 TWP .                                            ROSE:     TOWNSHIP
 CNTY.                                         CARROLL:     COUNTY
 STAT.                                              OH:     STATE
 CTRY.                                             USA:     COUNTRY
 SRVC.                                    SCHLUMBERGER:     SERVICE COMPANY
 DATE.                                       8/12/1969:     DATE
 API .                                  34019204780000:     API NUMBER
 UWI .                                  34019204780000:     UWI NUMBER
 TLD .                                            5250:     TOTAL LOG DEPTH
 RDAT.                                              KB:     REFERENCE Datum
 EPD .FT                                          1136:     Elevation Of REF. Datum
 FILE.NM     3401920478_GR-FDC_SCH_120_5227_Y_106_TH45:     FILE NAME
 WSTA.                                             LOC:     Well status
#
~Curve Information Block
#MNEM.UNIT       API CODE      Curve Description
#----------    -------------   -------------------
 DEPT.FT                   :   Depth in Feet
 GR  .         35 310 01 01:   Gamma Ray
 CALI.IN       70 280 01 01:   Caliper
 RHOB.G/C3     42 350 01 01:   Bulk Density
#
~Parameter Information Block
#MNEM.UNIT            Value               Description
#----------    --------------------    -------------------
 RUN .                         ONE:    Run Number
 PDAT.                            :    Permanent Datum
 EPD .FT                    0.0000:    Elevation Of Perm. Datum
 WSTA.                         LOC:    
 E   .FT                    0.0000:    E (Stretch Coefficient Of The Cable)
 TD  .FT                 5250.0000:    Total Depth
#
~Other Information Block
<DescLogPlotStart>   NEURALOG PLOT DEFINITION
PLOTDEFVERSION: 3
LASFILE: S:\Images\GeoPhysRasterLogs\Holding\LAS FILES\3401920478_GR-FDC_SCH_12
DEPTHSCALE: 240.000000
RESOLUTION: 200
DEPTHLABELFREQ: 100.000000
HEAVYGRIDFREQ: 100.000000
MEDIUMGRIDFREQ: 50.000000
LIGHTGRIDFREQ: 10.000000
#
#   TRACK 1
#
STARTTRACK: 
 LEFTX: 0.500000 inch
 RIGHTX: 3.000000 inch
 SCALETYPE: Linear
 NUMCHARTDIVISIONS: 10
CURVE: CALI  6.000000   16.000000  (0,131,131)    Dot               2     N    
CURVE: GR    0.000000   200.000000 (0,0,255)      Solid             2     N    
ENDTRACK: 
#
#   TRACK 2
#
STARTTRACK: 
 LEFTX: 3.500000 inch
 RIGHTX: 8.500000 inch
 SCALETYPE: Linear
 NUMCHARTDIVISIONS: 10
CURVE: RHOB  2.000000   3.000000   (255,0,255)    Solid             2     Y    
BACKUP: 1.000000   2.000000   (255,0,255)    Solid             2    
ENDTRACK: 
<DescLogPlotEnd>
~A DEPTH     GR               CALI             RHOB            
# ...
    4650.000 20.03968254      9.04563492       2.79290034      
    4650.500 20.43650794      9.04563492       2.81497287      
    4651.000 21.62698413      9.04563492       2.83120907      
    4651.500 22.00480281      9.04563492       2.83055353      
    4652.000 21.59439312      9.04563492       2.81862689      
    4652.500 21.08938694      9.04573422       2.82587781      
    4653.000 18.40531381      9.04542464       2.84355447      
    4653.500 17.93795365      9.04419902       2.84143264      
    4654.000 18.34220094      9.00307131       2.81385860      
    4654.500 18.91719512      9.00539021       2.80597248      
    4655.000 21.04715084      9.00600524       2.80196298      
    4655.500 22.04828246      9.00750664       2.78871027      
    4656.000 21.78363015      9.00967822       2.77886545      
    4656.500 21.23024938      9.01186175       2.77762980      
    4657.000 21.29143245      9.01404259       2.79038211      
    4657.500 19.17127985      9.01622233       2.80433357      
    4658.000 18.74185043      9.01840208       2.80653313      
    4658.500 18.63956806      9.02058182       2.80656783      
    4659.000 19.16993890      9.02276157       2.80439789      
    4659.500 19.66752513      9.02494131       2.81646706      
    4660.000 19.54302263      9.02712106       2.81976479      
    4660.500 19.23887256      9.02930080       2.79764432      
    4661.000 19.99218737      9.03148055       2.78604725      
    4661.500 19.24451059      9.03366030       2.80521204      
    4662.000 18.50676882      9.03584004       2.81465969      
    4662.500 19.17080799      9.03801979       2.82310444      
    4663.000 20.83500996      9.04019953       2.82867124      
    4663.500 22.90316230      9.04237928       2.82273812      
    4664.000 25.44561064      9.04455902       2.81224629      
    4664.500 26.40200306      9.04673877       2.81172222      
    4665.000 25.82274976      9.04891851       2.81224904      
    4665.500 24.76621917      9.05109826       2.81586909      
    4666.000 23.05059040      9.05327800       2.81313664      
    4666.500 22.29442885      9.05545775       2.82154066      
    4667.000 21.11099687      9.05763749       2.80909217      
    4667.500 20.22057755      9.05981893       2.79355157      
    4668.000 20.04193451      9.06200047       2.76483419      
    4668.500 20.04103550      9.06416515       2.77910773      
    4669.000 20.00962682      9.06548980       2.78769913      
    4669.500 20.43978318      9.06547482       2.77176893      
    4670.000 21.41201848      9.06547787       2.77616543      
    4670.500 22.01819553      9.06547619       2.77709265      
    4671.000 21.89398219      9.06547619       2.77788568      
    4671.500 21.99723398      9.06547619       2.78514941      
    4672.000 22.06969363      9.06547619       2.79188853      
    4672.500 21.46789789      9.06547619       2.79833903      
    4673.000 20.66397876      9.06547619       2.80862169      
    4673.500 18.83454729      9.06547619       2.82337574      
    4674.000 17.86435548      9.06547619       2.82861083      
    4674.500 17.24372940      9.06547619       2.82297984      
    4675.000 17.97079960      9.06547619       2.80912910      
    4675.500 18.84348392      9.06547619       2.80303976      
    4676.000 19.68425087      9.06547619       2.80036410      
    4676.500 19.34238360      9.06547619       2.79388244      
    4677.000 18.72397116      9.06547619       2.79088431      
    4677.500 18.74395372      9.06547619       2.78068622      
    4678.000 20.37795074      9.06547619       2.78663505      
    4678.500 21.24260724      9.06547619       2.80369107      
    4679.000 21.57613772      9.06547619       2.81831524      
    4679.500 20.03869987      9.06547619       2.81894543      
    4680.000 20.41822683      9.06545352       2.79067826      
    4680.500 22.34482531      9.06550228       2.78504717      
    4681.000 24.03089480      9.06683082       2.80630021      
    4681.500 25.15700965      9.05031759       2.81294597      
    4682.000 26.64221798      9.06091697       2.80899721      
    4682.500 26.51836168      9.05458534       2.80728773      
    4683.000 25.55985143      9.04377173       2.80843608      
    4683.500 26.50976456      9.04529736       2.80438787      
    4684.000 27.58775329      9.04976530       2.81405262      
    4684.500 27.94523838      9.05485735       2.82290749      
    4685.000 25.67841046      9.06009855       2.81100201      
    4685.500 21.99626701      9.06516593       2.79056400      
    4686.000 22.02728956      9.05892609       2.80015173      
    4686.500 22.32146744      9.05183094       2.80543318      
    4687.000 22.68489709      9.04477870       2.81509820      
    4687.500 23.43532644      9.03774351       2.80362689      
    4688.000 22.05848912      9.03070887       2.80064061      
    4688.500 20.04401081      9.02366761       2.80335896      
    4689.000 19.56597627      9.01663317       2.80686369      
    4689.500 20.05649099      9.00961998       2.81689442      
    4690.000 21.22140456      9.00651694       2.82019624      
    4690.500 22.00719426      9.00772892       2.83227740      
    4691.000 22.05417116      9.00892153       2.83316940      
    4691.500 21.52943840      9.01012763       2.82736842      
    4692.000 20.64680929      9.01132715       2.80356361      
    4692.500 20.22389073      9.01252667       2.78041441      
    4693.000 19.76452099      9.01372619       2.76566141      
    4693.500 19.21086851      9.01492571       2.76869587      
    4694.000 19.41857887      9.01612522       2.78783812      
    4694.500 20.51753614      9.01732474       2.79487294      
    4695.000 22.53229682      9.01852426       2.79423205      
    4695.500 24.70928917      9.01972378       2.80450478      
    4696.000 22.52881128      9.02092330       2.81251694      
    4696.500 20.55866810      9.02212282       2.82602768      
    4697.000 18.83348375      9.02332234       2.83860542      
    4697.500 18.76770305      9.02452186       2.83092477      
    4698.000 20.01352327      9.02572138       2.82857866      
    4698.500 22.02827730      9.02692089       2.82110882      
    4699.000 23.75363360      9.02812041       2.81035246      
    4699.500 25.47245882      9.02931993       2.80721299      
    4700.000 25.92263064      9.03051945       2.80816675      
    4700.500 24.72624033      9.03171897       2.80814080      
    4701.000 22.44172527      9.03291849       2.80709394      
    4701.500 22.08067231      9.03411801       2.80633519      
    4702.000 21.21344822      9.03531753       2.80397727      
    4702.500 19.22363263      9.03651705       2.80511344      
    4703.000 18.43809981      9.03771656       2.81092836      
    4703.500 19.27042727      9.03891608       2.80128705      
    4704.000 20.99844215      9.04011560       2.78427336      
    4704.500 21.98897989      9.04131512       2.79096944      
    4705.000 22.03937280      9.04251464       2.80720115      
    4705.500 22.04138473      9.04371416       2.82093920      
    4706.000 20.89762764      9.04491368       2.82114695      
    4706.500 19.20174213      9.04611320       2.81185432      
    4707.000 18.44277443      9.04731272       2.81409796      
    4707.500 18.72941026      9.04851223       2.81481207      
    4708.000 19.32090090      9.04971175       2.82201402      
    4708.500 19.62347530      9.05091127       2.83176945      
    4709.000 19.33169298      9.05211079       2.84823434      
    4709.500 20.33821449      9.05331031       2.83731785      
    4710.000 21.54758761      9.05450983       2.82657591      
    4710.500 22.71149502      9.05570935       2.81409379      
    4711.000 24.99905469      9.05690887       2.80875802      
    4711.500 25.60727720      9.05810839       2.80882636      
    4712.000 25.90950766      9.05930790       2.82241086      
