~Version Information Block
 VERS.                2.00:     CWLS LOG ASCII STANDARD - VERSION 2.000000
 WRAP.                  NO:     One Line Per Depth Step
#
~Well Information Block
#MNEM.UNIT                     Data                         Information
#----------   ------------------------------------------   ----------------
 STRT.FT                                      150.0000:     START DEPTH
 STOP.FT                                     5250.0000:     STOP DEPTH
 STEP.FT                                        0.5000:     STEP
 NULL.                                       -999.2500:     NULL VALUE
 COMP.           BELDEN & BLAKE & CO LMTD. PARTN. #10A:     COMPANY
 WELL.                                      HICKORY #4:     WELL
 FLD .                                        MAGNOLIA:     FIELD
 LOC .             500'FSL & 500' FWL INSE/Q ON SEC 34:     LOCATION
 LAT .                                    40.611212268:     LATITUDE
 LONG.                                  -81.3085905865:     LONGITUDE
 GDAT.                                           NAD83:     GeoDetic Datum
 TWP .                                            ROSE:     TOWNSHIP
 CNTY.                                         CARROLL:     COUNTY
 STAT.                                              OH:     STATE
 CTRY.                                             USA:     COUNTRY
 SRVC.                                    SCHLUMBERGER:     SERVICE COMPANY
 DATE.                                       8/12/1969:     DATE
 API .                                  34019204780000:     API NUMBER
 UWI .                                  34019204780000:     UWI NUMBER
 TLD .                                            5250:     TOTAL LOG DEPTH
 RDAT.                                              KB:     REFERENCE Datum
 EPD .FT                                          1136:     Elevation Of REF. Datum
 FILE.NM     3401920478_GR-FDC_SCH_120_5227_Y_106_TH45:     FILE NAME
 WSTA.                                             LOC:     Well status
#
~Curve Information Block
#MNEM.UNIT       API CODE      Curve Description
#----------    -------------   -------------------
 DEPT.FT                   :   Depth in Feet
 GR  .         35 310 01 01:   Gamma Ray
 CALI.IN       70 280 01 01:   Caliper
 RHOB.G/C3     42 350 01 01:   Bulk Density
#
~Parameter Information Block
#MNEM.UNIT            Value               Description
#----------    --------------------    -------------------
 RUN .                         ONE:    Run Number
 PDAT.                            :    Permanent Datum
 EPD .FT                    0.0000:    Elevation Of Perm. Datum
 WSTA.                         LOC:    
 E   .FT                    0.0000:    E (Stretch Coefficient Of The Cable)
 TD  .FT                 5250.0000:    Total Depth
#
~Other Information Block
<DescLogPlotStart>   NEURALOG PLOT DEFINITION
PLOTDEFVERSION: 3
LASFILE: S:\Images\GeoPhysRasterLogs\Holding\LAS FILES\3401920478_GR-FDC_SCH_12
DEPTHSCALE: 240.000000
RESOLUTION: 200
DEPTHLABELFREQ: 100.000000
HEAVYGRIDFREQ: 100.000000
MEDIUMGRIDFREQ: 50.000000
LIGHTGRIDFREQ: 10.000000
#
#   TRACK 1
#
STARTTRACK: 
 LEFTX: 0.500000 inch
 RIGHTX: 3.000000 inch
 SCALETYPE: Linear
 NUMCHARTDIVISIONS: 10
CURVE: CALI  6.000000   16.000000  (0,131,131)    Dot               2     N    
CURVE: GR    0.000000   200.000000 (0,0,255)      Solid             2     N    
ENDTRACK: 
#
#   TRACK 2
#
STARTTRACK: 
 LEFTX: 3.500000 inch
 RIGHTX: 8.500000 inch
 SCALETYPE: Linear
 NUMCHARTDIVISIONS: 10
CURVE: RHOB  2.000000   3.000000   (255,0,255)    Solid             2     Y    
BACKUP: 1.000000   2.000000   (255,0,255)    Solid             2    
ENDTRACK: 
<DescLogPlotEnd>
~A DEPTH     GR               CALI             RHOB            
# ...
    3025.000 162.97003778     9.39606766       2.63559469      
    3025.500 171.55813822     9.38869923       2.63429370      
    3026.000 181.99159811     9.38500930       2.62748181      
    3026.500 187.33881824     9.39027130       2.61412976      
    3027.000 190.68667415     9.38969331       2.60558625      
    3027.500 193.87239208     9.42293823       2.60755718      
    3028.000 196.21822487     9.39555676       2.60995500      
    3028.500 197.16870287     9.38853942       2.59250980      
    3029.000 198.27080307     9.40846139       2.59176467      
    3029.500 182.32666576     9.41017824       2.60838797      
    3030.000 167.03882981     9.42339825       2.63607840      
    3030.500 153.89899916     9.41792951       2.65416274      
    3031.000 145.80910032     9.38866681       2.65691477      
    3031.500 142.64781494     9.39580598       2.65773614      
    3032.000 143.77572353     9.39293715       2.66960549      
    3032.500 142.85922061     9.40881349       2.67523422      
    3033.000 139.44155027     9.43173803       2.66916072      
    3033.500 135.71837877     9.43218755       2.66751761      
    3034.000 133.86881345     9.42542336       2.66535838      
    3034.500 137.53467003     9.41021184       2.66586431      
    3035.000 140.81514185     9.38935873       2.66625027      
    3035.500 145.11106741     9.40964231       2.66546006      
    3036.000 152.35632283     9.43191000       2.65849670      
    3036.500 161.72506056     9.39302756       2.65511249      
    3037.000 167.85958418     9.37543658       2.65336896      
    3037.500 168.95731228     9.38861253       2.65559951      
    3038.000 168.22351059     9.38044346       2.65447178      
    3038.500 168.88478672     9.37271671       2.65458734      
    3039.000 169.47385329     9.38621955       2.64866233      
    3039.500 168.64643173     9.40565405       2.63647144      
    3040.000 162.33240265     9.37617281       2.63333147      
    3040.500 154.72136178     9.38834529       2.64093603      
    3041.000 153.01210032     9.36899102       2.64244258      
    3041.500 163.76810712     9.39126811       2.65230559      
    3042.000 176.83074033     9.38968087       2.65014242      
    3042.500 184.08599929     9.39490903       2.62744471      
    3043.000 179.70719936     9.40920430       2.62736124      
    3043.500 169.79783362     9.40818995       2.64334335      
    3044.000 163.71750564     9.41063949       2.64704599      
    3044.500 163.04242126     9.40991151       2.64653900      
    3045.000 162.57401948     9.41361191       2.64251394      
    3045.500 161.34047163     9.40372543       2.63694103      
    3046.000 154.04054484     9.41099922       2.64135268      
    3046.500 144.54528172     9.42911077       2.65643924      
    3047.000 143.03356292     9.43040961       2.67224958      
    3047.500 145.35295914     9.43147676       2.67259753      
    3048.000 147.83833479     9.41072369       2.66462387      
    3048.500 148.17367804     9.41015467       2.65839535      
    3049.000 144.17428330     9.41004794       2.66471557      
    3049.500 140.96836586     9.40803565       2.67791320      
    3050.000 139.00337544     9.41111800       2.69389923      
    3050.500 140.85665104     9.42624928       2.70644699      
    3051.000 145.69558620     9.41785653       2.71558485      
    3051.500 152.32418824     9.38786659       2.70344306      
    3052.000 158.16185964     9.40870960       2.68702622      
    3052.500 158.41949028     9.40889649       2.67901170      
    3053.000 152.61819211     9.42752515       2.67697596      
    3053.500 144.53624222     9.43534410       2.66994379      
    3054.000 141.46047056     9.40774596       2.65909176      
    3054.500 143.32971473     9.39131123       2.65774865      
    3055.000 148.70021703     9.39281963       2.64719448      
    3055.500 157.09591861     9.40873505       2.63066859      
    3056.000 161.32789610     9.40892327       2.63191250      
    3056.500 159.65437392     9.41548534       2.64835159      
    3057.000 159.01371079     9.41192356       2.66936912      
    3057.500 160.00695962     9.41027422       2.67248373      
    3058.000 166.31348888     9.41050198       2.66787625      
    3058.500 172.90215759     9.40995799       2.65539505      
    3059.000 175.06797136     9.41000000       2.62973894      
    3059.500 170.67764555     9.40999936       2.63098067      
    3060.000 158.32563149     9.40974028       2.65243643      
    3060.500 148.61990121     9.41104435       2.65724703      
    3061.000 142.97023666     9.38928608       2.65944382      
    3061.500 142.91695144     9.40534010       2.66223388      
    3062.000 150.09531115     9.40988305       2.66967442      
    3062.500 159.88748977     9.44178693       2.66915419      
    3063.000 166.86457106     9.43915166       2.66466810      
    3063.500 166.84000378     9.42852125       2.66181638      
    3064.000 161.61741975     9.39934540       2.65078137      
    3064.500 158.76292648     9.39477266       2.65629749      
    3065.000 158.72827122     9.40767879       2.65701072      
    3065.500 162.75727019     9.42269809       2.64504576      
    3066.000 168.84271914     9.41597401       2.63915618      
    3066.500 170.13319715     9.41075382       2.63522394      
    3067.000 167.43026296     9.43104477       2.64095139      
    3067.500 161.82919683     9.43006243       2.65061498      
    3068.000 159.00213727     9.42356823       2.65353385      
    3068.500 161.74446343     9.42967501       2.64488632      
    3069.000 164.38614884     9.43526264       2.63596040      
    3069.500 163.03409103     9.45094770       2.63076033      
    3070.000 159.57882878     9.43088090       2.63350198      
    3070.500 159.49291708     9.43013382       2.63453074      
    3071.000 161.88623059     9.43007127       2.62878256      
    3071.500 165.88707988     9.43017597       2.62165865      
    3072.000 161.57007136     9.42363308       2.62710863      
    3072.500 152.36704994     9.42897928       2.64790437      
    3073.000 143.00074120     9.43368569       2.66893277      
    3073.500 142.66201459     9.44926851       2.68147125      
    3074.000 144.33817840     9.44867049       2.67774527      
    3074.500 148.49656382     9.45025590       2.66058887      
    3075.000 156.08217955     9.44857701       2.64785162      
    3075.500 168.82928895     9.46927631       2.63229713      
    3076.000 182.01454665     9.46989402       2.60305574      
    3076.500 187.13169845     9.47010009       2.59762942      
    3077.000 187.76639733     9.46981536       2.59560418      
    3077.500 178.71653358     9.46881800       2.60623157      
    3078.000 170.13141924     9.45338467       2.62309194      
    3078.500 162.57289280     9.46919514       2.63606917      
    3079.000 160.19491522     9.47174320       2.64336083      
    3079.500 159.26397108     9.45581135       2.64271460      
    3080.000 156.76836346     9.47195223       2.63288404      
    3080.500 158.39537513     9.45808317       2.62947675      
    3081.000 162.51186404     9.45448587       2.61646355      
    3081.500 172.72561629     9.44956829       2.60428010      
    3082.000 181.02362174     9.44954354       2.60424608      
    3082.500 179.70322549     9.43435141       2.60156864      
    3083.000 171.43674414     9.43492408       2.60571216      
    3083.500 162.83087419     9.44963724       2.62398372      
    3084.000 154.51981292     9.44888831       2.64513384      
    3084.500 150.33688536     9.46427593       2.65798069      
    3085.000 149.27870412     9.46895581       2.65767677      
    3085.500 150.60814547     9.45327992       2.65794021      
    3086.000 150.68094097     9.45187052       2.67092759      
    3086.500 151.38899057     9.44888174       2.66966891      
    3087.000 155.15767100     9.43502641       2.65349022      
