~Version Information Block
 VERS.                2.00:     CWLS LOG ASCII STANDARD - VERSION 2.000000
 WRAP.                  NO:     One Line Per Depth Step
#
~Well Information Block
#MNEM.UNIT                     Data                         Information
#----------   ------------------------------------------   ----------------
 STRT.FT                                      150.0000:     START DEPTH
 STOP.FT                                     5250.0000:     STOP DEPTH
 STEP.FT                                        0.5000:     STEP
 NULL.                                       -999.2500:     NULL VALUE
 COMP.           BELDEN & BLAKE & CO LMTD. PARTN. #10A:     COMPANY
 WELL.                                      HICKORY #4:     WELL
 FLD .                                        MAGNOLIA:     FIELD
 LOC .             500'FSL & 500' FWL INSE/Q ON SEC 34:     LOCATION
 LAT .                                    40.611212268:     LATITUDE
 LONG.                                  -81.3085905865:     LONGITUDE
 GDAT.                                           NAD83:     GeoDetic Datum
 TWP .                                            ROSE:     TOWNSHIP
 CNTY.                                         CARROLL:     COUNTY
 STAT.                                              OH:     STATE
 CTRY.                                             USA:     COUNTRY
 SRVC.                                    SCHLUMBERGER:     SERVICE COMPANY
 DATE.                                       8/12/1969:     DATE
 API .                                  34019204780000:     API NUMBER
 UWI .                                  34019204780000:     UWI NUMBER
 TLD .                                            5250:     TOTAL LOG DEPTH
 RDAT.                                              KB:     REFERENCE Datum
 EPD .FT                                          1136:     Elevation Of REF. Datum
 FILE.NM     3401920478_GR-FDC_SCH_120_5227_Y_106_TH45:     FILE NAME
 WSTA.                                             LOC:     Well status
#
~Curve Information Block
#MNEM.UNIT       API CODE      Curve Description
#----------    -------------   -------------------
 DEPT.FT                   :   Depth in Feet
 GR  .         35 310 01 01:   Gamma Ray
 CALI.IN       70 280 01 01:   Caliper
 RHOB.G/C3     42 350 01 01:   Bulk Density
#
~Parameter Information Block
#MNEM.UNIT            Value               Description
#----------    --------------------    -------------------
 RUN .                         ONE:    Run Number
 PDAT.                            :    Permanent Datum
 EPD .FT                    0.0000:    Elevation Of Perm. Datum
 WSTA.                         LOC:    
 E   .FT                    0.0000:    E (Stretch Coefficient Of The Cable)
 TD  .FT                 5250.0000:    Total Depth
#
~Other Information Block
<DescLogPlotStart>   NEURALOG PLOT DEFINITION
PLOTDEFVERSION: 3
LASFILE: S:\Images\GeoPhysRasterLogs\Holding\LAS FILES\3401920478_GR-FDC_SCH_12
DEPTHSCALE: 240.000000
RESOLUTION: 200
DEPTHLABELFREQ: 100.000000
HEAVYGRIDFREQ: 100.000000
MEDIUMGRIDFREQ: 50.000000
LIGHTGRIDFREQ: 10.000000
#
#   TRACK 1
#
STARTTRACK: 
 LEFTX: 0.500000 inch
 RIGHTX: 3.000000 inch
 SCALETYPE: Linear
 NUMCHARTDIVISIONS: 10
CURVE: CALI  6.000000   16.000000  (0,131,131)    Dot               2     N    
CURVE: GR    0.000000   200.000000 (0,0,255)      Solid             2     N    
ENDTRACK: 
#
#   TRACK 2
#
STARTTRACK: 
 LEFTX: 3.500000 inch
 RIGHTX: 8.500000 inch
 SCALETYPE: Linear
 NUMCHARTDIVISIONS: 10
CURVE: RHOB  2.000000   3.000000   (255,0,255)    Solid             2     Y    
BACKUP: 1.000000   2.000000   (255,0,255)    Solid             2    
ENDTRACK: 
<DescLogPlotEnd>
~A DEPTH     GR               CALI             RHOB            
# ...
    3587.500 41.97547546      9.39733634       2.68648679      
    3588.000 40.28060116      9.47629850       2.68641850      
    3588.500 39.05538172      9.39521574       2.68636475      
    3589.000 37.20552998      9.39353974       2.68963047      
    3589.500 35.47349184      9.40319126       2.69227896      
    3590.000 35.94024693      9.40323298       2.69736431      
    3590.500 37.57245950      9.38913241       2.70857871      
    3591.000 37.22431281      9.39612304       2.71677639      
    3591.500 39.40686776      9.39636813       2.71825156      
    3592.000 43.92718900      9.39134509       2.71436447      
    3592.500 48.85632046      9.40502961       2.70799211      
    3593.000 50.61477109      9.39164904       2.69857495      
    3593.500 46.71590296      9.41111448       2.69107601      
    3594.000 41.39307556      9.40274517       2.68660165      
    3594.500 38.60457623      9.38276779       2.66984802      
    3595.000 38.63425968      9.37178504       2.65130254      
    3595.500 38.60875420      9.39259492       2.64242041      
    3596.000 38.89160747      9.42472265       2.65632918      
    3596.500 39.77709940      9.42487426       2.67221520      
    3597.000 40.72664672      9.43067943       2.67957303      
    3597.500 41.28017657      9.43088309       2.68153797      
    3598.000 40.91965042      9.44772482       2.67602138      
    3598.500 39.68721764      9.42355383       2.67865000      
    3599.000 38.60246572      9.42925124       2.71444464      
    3599.500 37.87907749      9.43466587       2.74989927      
    3600.000 36.26631728      9.45001939       2.77385885      
    3600.500 35.47609301      9.44501587       2.67217056      
    3601.000 38.90847724      9.42908014       2.66997569      
    3601.500 41.24563134      9.44899779       2.67602114      
    3602.000 40.33071355      9.44966238       2.68407752      
    3602.500 37.16532348      9.45616065       2.68427136      
    3603.000 32.63800008      9.45100604       2.68248138      
    3603.500 29.38620190      9.46685567       2.67382154      
    3604.000 28.17471602      9.45108192       2.70021443      
    3604.500 28.65165246      9.45011759       2.70981334      
    3605.000 31.07817080      9.45119610       2.72060125      
    3605.500 32.50905336      9.48614463       2.73023626      
    3606.000 31.55320153      9.50319325       2.72544511      
    3606.500 30.48615978      9.49503239       2.69935910      
    3607.000 31.78585305      9.49018495       2.68671124      
    3607.500 34.35720858      9.48906152       2.68418870      
    3608.000 35.97982387      9.50800250       2.68899531      
    3608.500 38.58961742      9.53120156       2.70401404      
    3609.000 39.83129180      9.53051402       2.71701271      
    3609.500 41.32586329      9.55125098       2.72912785      
    3610.000 41.11805343      9.55111915       2.72359509      
    3610.500 42.12841689      9.56665996       2.71776568      
    3611.000 42.46029024      9.54928818       2.71835767      
    3611.500 43.07692526      9.54978124       2.71335181      
    3612.000 43.19685252      9.56231252       2.70913960      
    3612.500 43.00263416      9.56991830       2.68722892      
    3613.000 43.02622642      9.57002159       2.66746471      
    3613.500 43.46535918      9.57001408       2.66108092      
    3614.000 40.03193369      9.57000000       2.66525413      
    3614.500 33.69661659      9.57000000       2.67093788      
    3615.000 29.01802611      9.57002784       2.69440732      
    3615.500 27.35824487      9.57003654       2.69661769      
    3616.000 26.85126412      9.56950950       2.70141719      
    3616.500 26.86858275      9.56022162       2.70728631      
    3617.000 27.75248882      9.57185035       2.71437296      
    3617.500 29.38567254      9.55466812       2.71677421      
    3618.000 29.84906408      9.54818727       2.71925665      
    3618.500 27.68932901      9.55623288       2.71085092      
    3619.000 23.50786909      9.55769113       2.68693672      
    3619.500 18.96899563      9.56139365       2.66299143      
    3620.000 16.23361029      9.56852073       2.64300547      
    3620.500 14.99104857      9.55469976       2.64162257      
    3621.000 15.67166922      9.56498086       2.64916565      
    3621.500 17.55231520      9.56342243       2.66900008      
    3622.000 20.13103036      9.56259081       2.72377313      
    3622.500 22.35275247      9.55674440       2.72642770      
    3623.000 22.47605006      9.56532350       2.72165442      
    3623.500 21.77161395      9.57079835       2.71628191      
    3624.000 22.97393350      9.56949678       2.71056771      
    3624.500 25.02439101      9.56760988       2.70646640      
    3625.000 25.13226870      9.57431714       2.70940417      
    3625.500 22.08925993      9.59692918       2.71827639      
    3626.000 18.16846575      9.64359720       2.70163410      
    3626.500 14.93944549      9.67676089       2.67803392      
    3627.000 14.88703271      9.65464359       2.66111284      
    3627.500 15.73926292      9.77584128       2.70525356      
    3628.000 15.96785617      10.11661016      2.68180378      
    3628.500 16.82506928      9.93490181       2.65143674      
    3629.000 19.22866809      9.74094010       2.72122392      
    3629.500 20.55047013      9.95201067       2.71007289      
    3630.000 20.68751851      10.35458522      2.69934438      
    3630.500 21.72621018      10.52085515      2.66774798      
    3631.000 21.75785486      10.40541150      2.65221221      
    3631.500 20.07196538      10.30377043      2.65969855      
    3632.000 19.80442274      10.53961629      2.61993278      
    3632.500 20.18300762      10.68755112      2.61435018      
    3633.000 21.40919091      10.49146838      2.60296920      
    3633.500 21.90865198      10.23367695      2.58891718      
    3634.000 22.64048099      10.03718392      2.57115680      
    3634.500 24.17022000      9.63594348       2.64179431      
    3635.000 24.68962772      9.57848958       2.68787430      
    3635.500 23.58968305      9.59225864       2.69435008      
    3636.000 21.77490681      9.57227875       2.69446463      
    3636.500 21.85925087      9.57023084       2.69687715      
    3637.000 22.83734239      9.57391373       2.69940861      
    3637.500 22.41998739      9.57468027       2.69959288      
    3638.000 22.87528599      9.57218846       2.70266992      
    3638.500 21.53011093      9.57628746       2.70726872      
    3639.000 22.23850826      9.56824365       2.70926212      
    3639.500 24.03254528      9.57027558       2.71003632      
    3640.000 24.31676449      9.57034761       2.71535823      
    3640.500 23.05983741      9.58390053       2.71347902      
    3641.000 22.17268678      9.57416446       2.71023410      
    3641.500 22.45222045      9.59066407       2.70569107      
    3642.000 24.13399252      9.58190944       2.70032680      
    3642.500 26.11081336      9.58922349       2.67029673      
    3643.000 26.68053503      9.59454612       2.66529899      
    3643.500 24.72945307      9.61222281       2.67775102      
    3644.000 23.27540802      9.80370926       2.67590453      
    3644.500 20.66575753      10.09685156      2.67230205      
    3645.000 19.45768721      10.27241345      2.67855713      
    3645.500 19.35802248      10.12242375      2.68982968      
    3646.000 19.90043331      10.00801650      2.69010256      
    3646.500 20.71552424      9.86876995       2.65168802      
    3647.000 22.08139708      9.61932483       2.61355044      
    3647.500 22.67109847      9.53195611       2.58977549      
    3648.000 21.78477809      9.65142295       2.61533934      
    3648.500 19.44728315      9.92361691       2.62601518      
    3649.000 18.50243338      10.31782829      2.61811444      
    3649.500 17.21834138      10.59132746      2.62696209      
