~Version Information Block
 VERS.                2.00:     CWLS LOG ASCII STANDARD - VERSION 2.000000
 WRAP.                  NO:     One Line Per Depth Step
#
~Well Information Block
#MNEM.UNIT                     Data                         Information
#----------   ------------------------------------------   ----------------
 STRT.FT                                      150.0000:     START DEPTH
 STOP.FT                                     5250.0000:     STOP DEPTH
 STEP.FT                                        0.5000:     STEP
 NULL.                                       -999.2500:     NULL VALUE
 COMP.           BELDEN & BLAKE & CO LMTD. PARTN. #10A:     COMPANY
 WELL.                                      HICKORY #4:     WELL
 FLD .                                        MAGNOLIA:     FIELD
 LOC .             500'FSL & 500' FWL INSE/Q ON SEC 34:     LOCATION
 LAT .                                    40.611212268:     LATITUDE
 LONG.                                  -81.3085905865:     LONGITUDE
 GDAT.                                           NAD83:     GeoDetic Datum
 TWP .                                            ROSE:     TOWNSHIP
 CNTY.                                         CARROLL:     COUNTY
 STAT.                                              OH:     STATE
 CTRY.                                             USA:     COUNTRY
 SRVC.                                    SCHLUMBERGER:     SERVICE COMPANY
 DATE.                                       8/12/1969:     DATE
 API .                                  34019204780000:     API NUMBER
 UWI .                                  34019204780000:     UWI NUMBER
 TLD .                                            5250:     TOTAL LOG DEPTH
 RDAT.                                              KB:     REFERENCE Datum
 EPD .FT                                          1136:     Elevation Of REF. Datum
 FILE.NM     3401920478_GR-FDC_SCH_120_5227_Y_106_TH45:     FILE NAME
 WSTA.                                             LOC:     Well status
#
~Curve Information Block
#MNEM.UNIT       API CODE      Curve Description
#----------    -------------   -------------------
 DEPT.FT                   :   Depth in Feet
 GR  .         35 310 01 01:   Gamma Ray
 CALI.IN       70 280 01 01:   Caliper
 RHOB.G/C3     42 350 01 01:   Bulk Density
#
~Parameter Information Block
#MNEM.UNIT            Value               Description
#----------    --------------------    -------------------
 RUN .                         ONE:    Run Number
 PDAT.                            :    Permanent Datum
 EPD .FT                    0.0000:    Elevation Of Perm. Datum
 WSTA.                         LOC:    
 E   .FT                    0.0000:    E (Stretch Coefficient Of The Cable)
 TD  .FT                 5250.0000:    Total Depth
#
~Other Information Block
<DescLogPlotStart>   NEURALOG PLOT DEFINITION
PLOTDEFVERSION: 3
LASFILE: S:\Images\GeoPhysRasterLogs\Holding\LAS FILES\3401920478_GR-FDC_SCH_12
DEPTHSCALE: 240.000000
RESOLUTION: 200
DEPTHLABELFREQ: 100.000000
HEAVYGRIDFREQ: 100.000000
MEDIUMGRIDFREQ: 50.000000
LIGHTGRIDFREQ: 10.000000
#
#   TRACK 1
#
STARTTRACK: 
 LEFTX: 0.500000 inch
 RIGHTX: 3.000000 inch
 SCALETYPE: Linear
 NUMCHARTDIVISIONS: 10
CURVE: CALI  6.000000   16.000000  (0,131,131)    Dot               2     N    
CURVE: GR    0.000000   200.000000 (0,0,255)      Solid             2     N    
ENDTRACK: 
#
#   TRACK 2
#
STARTTRACK: 
 LEFTX: 3.500000 inch
 RIGHTX: 8.500000 inch
 SCALETYPE: Linear
 NUMCHARTDIVISIONS: 10
CURVE: RHOB  2.000000   3.000000   (255,0,255)    Solid             2     Y    
BACKUP: 1.000000   2.000000   (255,0,255)    Solid             2    
ENDTRACK: 
<DescLogPlotEnd>
~A DEPTH     GR               CALI             RHOB            
# ...
    4400.000 54.75722359      9.44702260       2.75103053      
    4400.500 51.64909473      9.44575988       2.79112662      
    4401.000 51.32254725      9.44436284       2.79212363      
    4401.500 52.21165774      9.44296574       2.78521542      
    4402.000 53.39901520      9.44156863       2.77622452      
    4402.500 53.85005473      9.44017153       2.77593722      
    4403.000 53.35973542      9.43877442       2.78393413      
    4403.500 55.08655017      9.43737732       2.78111083      
    4404.000 51.92745339      9.43598021       2.78630502      
    4404.500 42.50975513      9.43458311       2.80218347      
    4405.000 31.84991660      9.43318600       2.82656491      
    4405.500 23.74867276      9.43178890       2.85315730      
    4406.000 19.55226192      9.43039179       2.87967795      
    4406.500 18.06376503      9.42899469       2.90406525      
    4407.000 16.66569716      9.42759758       2.90973500      
    4407.500 17.26372486      9.42620048       2.88608456      
    4408.000 19.04169126      9.42480337       2.83816652      
    4408.500 22.57686731      9.42340626       2.79759654      
    4409.000 28.25248228      9.42200916       2.78496628      
    4409.500 31.07642752      9.42061205       2.72691046      
    4410.000 31.84164360      9.41921495       2.71837900      
    4410.500 31.72760928      9.41781784       2.60873569      
    4411.000 29.46012297      9.41642074       2.59796356      
    4411.500 29.22451959      9.41502363       2.58477681      
    4412.000 32.45292101      9.41325130       2.57890594      
    4412.500 39.43588580      9.41145836       2.57622539      
    4413.000 48.99684854      9.41359404       2.62498999      
    4413.500 63.79087632      9.59954474       2.67908077      
    4414.000 72.10791486      10.07799044      2.70747906      
    4414.500 69.41882313      10.50713799      2.68514203      
    4415.000 79.44913574      10.46656479      2.67257717      
    4415.500 100.67487423     10.38265139      2.69239600      
    4416.000 139.73501202     10.29951458      2.69887596      
    4416.500 170.43939043     10.21355095      2.70714578      
    4417.000 158.64727822     9.98397369       2.70973340      
    4417.500 102.06838211     9.55855434       2.72226131      
    4418.000 73.63224390      9.14603746       2.72760902      
    4418.500 46.68188999      9.09253339       2.75431258      
    4419.000 44.23942893      9.10955157       2.76718720      
    4419.500 50.39167970      9.11080366       2.76975117      
    4420.000 60.78032154      9.13147861       2.75159614      
    4420.500 71.06842537      9.13028030       2.71717608      
    4421.000 77.81340584      9.12996135       2.69515500      
    4421.500 79.37721253      9.13036354       2.69212099      
    4422.000 76.18610166      9.13144351       2.70460515      
    4422.500 74.92362110      9.13251205       2.71809181      
    4423.000 68.00284610      9.13358198       2.73967557      
    4423.500 55.10078976      9.13465120       2.75615025      
    4424.000 43.03215823      9.13572041       2.76894897      
    4424.500 33.24179496      9.13678963       2.81972127      
    4425.000 25.87961049      9.13785885       2.86040406      
    4425.500 26.64319676      9.13892806       2.87033933      
    4426.000 31.54601647      9.13999728       2.87335824      
    4426.500 37.64122952      9.14106649       2.86193088      
    4427.000 40.24935290      9.14213571       2.85331686      
    4427.500 41.67837627      9.14320493       2.83940779      
    4428.000 44.19676794      9.14427414       2.81451237      
    4428.500 44.40103961      9.14534336       2.79183147      
    4429.000 42.33687477      9.14641258       2.79186163      
    4429.500 39.41002904      9.14748179       2.80624638      
    4430.000 39.18627369      9.14855101       2.82384907      
    4430.500 41.40024977      9.14962023       2.86238915      
    4431.000 46.64132772      9.15068944       2.87695486      
    4431.500 49.12961835      9.15175866       2.86278543      
    4432.000 45.80968962      9.15282788       2.85916032      
    4432.500 39.85106314      9.15389709       2.86086735      
    4433.000 30.78653645      9.15496631       2.85598076      
    4433.500 25.06112907      9.15603553       2.85908091      
    4434.000 22.67066770      9.15710474       2.86906595      
    4434.500 20.58411130      9.15817396       2.88372338      
    4435.000 18.66447886      9.15924318       2.88337399      
    4435.500 18.97792667      9.16031239       2.88672748      
    4436.000 20.64386965      9.16138161       2.88790744      
    4436.500 23.18746172      9.16245083       2.86698112      
    4437.000 26.07254021      9.16352004       2.84194945      
    4437.500 28.26083379      9.16458926       2.80934575      
    4438.000 30.11268228      9.16565848       2.78427760      
    4438.500 30.57615790      9.16672769       2.74905007      
    4439.000 30.41518375      9.16779691       2.72187571      
    4439.500 31.84060333      9.16886612       2.70332541      
    4440.000 35.31627524      9.16993534       2.69594686      
    4440.500 38.30530733      9.17100456       2.68650189      
    4441.000 41.82051202      9.17207377       2.69807218      
    4441.500 47.52121450      9.17314299       2.73134802      
    4442.000 52.82751835      9.17421221       2.74837880      
    4442.500 57.31166252      9.17528142       2.74548204      
    4443.000 61.51120290      9.17635064       2.74319623      
    4443.500 67.18806805      9.17741986       2.72649365      
    4444.000 82.69392028      9.17848907       2.69741309      
    4444.500 96.14595790      9.17955829       2.66040303      
    4445.000 101.16697153     9.18062751       2.64926669      
    4445.500 98.87467577      9.18169672       2.65872151      
    4446.000 88.08878081      9.18276594       2.68892985      
    4446.500 71.52508168      9.18383516       2.72272188      
    4447.000 58.48465664      9.18490437       2.76904416      
    4447.500 36.12745332      9.18597359       2.81232366      
    4448.000 23.07460118      9.18704281       2.86661623      
    4448.500 15.46851599      9.18811202       2.90675166      
    4449.000 13.34489119      9.18918124       2.90554418      
    4449.500 14.56171642      9.19025046       2.90196711      
    4450.000 16.82403878      9.19131967       2.89496462      
    4450.500 19.03988301      9.19238889       2.88778596      
    4451.000 19.03334108      9.19345811       2.89524725      
    4451.500 19.03746425      9.19452732       2.90409118      
    4452.000 18.08793273      9.19559654       2.92692345      
    4452.500 15.88639375      9.19666576       2.94352167      
    4453.000 14.80822364      9.19773497       2.96848033      
    4453.500 15.54035640      9.19880419       2.97239895      
    4454.000 16.93771393      9.19987340       2.93418319      
    4454.500 19.39286560      9.20094262       2.90904716      
    4455.000 21.55300592      9.20201184       2.89319251      
    4455.500 24.27009528      9.20308105       2.87225926      
    4456.000 28.94597323      9.20415027       2.84790820      
    4456.500 33.81593230      9.20521949       2.81056459      
    4457.000 36.26759716      9.20628870       2.78825897      
    4457.500 39.33701250      9.20735978       2.76472021      
    4458.000 40.38723587      9.20842551       2.73094681      
    4458.500 36.84358910      9.20950025       2.72548546      
    4459.000 30.19561912      9.20939261       2.71718096      
    4459.500 27.70205363      9.20827585       2.69183217      
    4460.000 27.97501689      9.20714631       2.68161829      
    4460.500 28.11949077      9.20601526       2.67584213      
    4461.000 27.40625028      9.20488610       2.69437337      
    4461.500 26.69350244      9.20375695       2.75241161      
    4462.000 25.91463535      9.20262779       2.82223221      
