~Version Information Block
 VERS.                2.00:     CWLS LOG ASCII STANDARD - VERSION 2.000000
 WRAP.                  NO:     One Line Per Depth Step
#
~Well Information Block
#MNEM.UNIT                     Data                         Information
#----------   ------------------------------------------   ----------------
 STRT.FT                                      150.0000:     START DEPTH
 STOP.FT                                     5250.0000:     STOP DEPTH
 STEP.FT                                        0.5000:     STEP
 NULL.                                       -999.2500:     NULL VALUE
 COMP.           BELDEN & BLAKE & CO LMTD. PARTN. #10A:     COMPANY
 WELL.                                      HICKORY #4:     WELL
 FLD .                                        MAGNOLIA:     FIELD
 LOC .             500'FSL & 500' FWL INSE/Q ON SEC 34:     LOCATION
 LAT .                                    40.611212268:     LATITUDE
 LONG.                                  -81.3085905865:     LONGITUDE
 GDAT.                                           NAD83:     GeoDetic Datum
 TWP .                                            ROSE:     TOWNSHIP
 CNTY.                                         CARROLL:     COUNTY
 STAT.                                              OH:     STATE
 CTRY.                                             USA:     COUNTRY
 SRVC.                                    SCHLUMBERGER:     SERVICE COMPANY
 DATE.                                       8/12/1969:     DATE
 API .                                  34019204780000:     API NUMBER
 UWI .                                  34019204780000:     UWI NUMBER
 TLD .                                            5250:     TOTAL LOG DEPTH
 RDAT.                                              KB:     REFERENCE Datum
 EPD .FT                                          1136:     Elevation Of REF. Datum
 FILE.NM     3401920478_GR-FDC_SCH_120_5227_Y_106_TH45:     FILE NAME
 WSTA.                                             LOC:     Well status
#
~Curve Information Block
#MNEM.UNIT       API CODE      Curve Description
#----------    -------------   -------------------
 DEPT.FT                   :   Depth in Feet
 GR  .         35 310 01 01:   Gamma Ray
 CALI.IN       70 280 01 01:   Caliper
 RHOB.G/C3     42 350 01 01:   Bulk Density
#
~Parameter Information Block
#MNEM.UNIT            Value               Description
#----------    --------------------    -------------------
 RUN .                         ONE:    Run Number
 PDAT.                            :    Permanent Datum
 EPD .FT                    0.0000:    Elevation Of Perm. Datum
 WSTA.                         LOC:    
 E   .FT                    0.0000:    E (Stretch Coefficient Of The Cable)
 TD  .FT                 5250.0000:    Total Depth
#
~Other Information Block
<DescLogPlotStart>   NEURALOG PLOT DEFINITION
PLOTDEFVERSION: 3
LASFILE: S:\Images\GeoPhysRasterLogs\Holding\LAS FILES\3401920478_GR-FDC_SCH_12
DEPTHSCALE: 240.000000
RESOLUTION: 200
DEPTHLABELFREQ: 100.000000
HEAVYGRIDFREQ: 100.000000
MEDIUMGRIDFREQ: 50.000000
LIGHTGRIDFREQ: 10.000000
#
#   TRACK 1
#
STARTTRACK: 
 LEFTX: 0.500000 inch
 RIGHTX: 3.000000 inch
 SCALETYPE: Linear
 NUMCHARTDIVISIONS: 10
CURVE: CALI  6.000000   16.000000  (0,131,131)    Dot               2     N    
CURVE: GR    0.000000   200.000000 (0,0,255)      Solid             2     N    
ENDTRACK: 
#
#   TRACK 2
#
STARTTRACK: 
 LEFTX: 3.500000 inch
 RIGHTX: 8.500000 inch
 SCALETYPE: Linear
 NUMCHARTDIVISIONS: 10
CURVE: RHOB  2.000000   3.000000   (255,0,255)    Solid             2     Y    
BACKUP: 1.000000   2.000000   (255,0,255)    Solid             2    
ENDTRACK: 
<DescLogPlotEnd>
~A DEPTH     GR               CALI             RHOB            
# ...
    3837.500 28.59410948      9.39025195       2.84588958      
    3838.000 41.75116464      9.36979553       2.80990173      
    3838.500 54.31548580      9.37950187       2.78393191      
    3839.000 65.27436705      9.35088316       2.75471444      
    3839.500 65.54696098      9.34973563       2.72895433      
    3840.000 67.17228439      9.34994432       2.73616813      
    3840.500 67.31499445      9.35000000       2.74514432      
    3841.000 64.50608848      9.35000000       2.74236455      
    3841.500 55.38350129      9.35000000       2.76112391      
    3842.000 45.88954877      9.35000000       2.78667760      
    3842.500 36.73507618      9.34998503       2.79784208      
    3843.000 29.79108712      9.35019311       2.83110929      
    3843.500 23.39262248      9.34943407       2.85755598      
    3844.000 18.30912642      9.37099619       2.89073364      
    3844.500 11.87141638      9.36839636       2.93703781      
    3845.000 11.61575016      9.38880442       2.96287429      
    3845.500 12.11218710      9.39475301       2.97027141      
    3846.000 13.55162019      9.40954627       2.94906218      
    3846.500 14.14900811      9.41015721       2.94955803      
    3847.000 13.29653156      9.41002784       2.95227165      
    3847.500 12.29347038      9.41000000       2.94268783      
    3848.000 12.88142767      9.41000000       2.92075339      
    3848.500 14.95753454      9.41000000       2.91765999      
    3849.000 17.64062937      9.41000000       2.89511690      
    3849.500 20.26727743      9.41000000       2.82930346      
    3850.000 21.17513929      9.41000000       2.81231108      
    3850.500 21.39300620      9.41000000       2.79861733      
    3851.000 21.71734127      9.41000000       2.78493396      
    3851.500 22.58097085      9.41000000       2.77506799      
    3852.000 23.71673562      9.41000000       2.78175020      
    3852.500 24.24777817      9.41000000       2.81027613      
    3853.000 21.58201093      9.41000000       2.82904109      
    3853.500 20.91530876      9.41000000       2.82967387      
    3854.000 22.22683840      9.41000000       2.81030529      
    3854.500 23.02079138      9.41000000       2.78405137      
    3855.000 22.85939702      9.41000000       2.76873637      
    3855.500 23.44273581      9.41000000       2.78028345      
    3856.000 25.30876803      9.41000000       2.78145811      
    3856.500 26.44949852      9.41000000       2.78758361      
    3857.000 28.89903804      9.41000000       2.79314673      
    3857.500 35.49134863      9.41000000       2.76225382      
    3858.000 44.59837809      9.41000000       2.74259154      
    3858.500 51.71607000      9.41000000       2.72417535      
    3859.000 51.95047164      9.41000000       2.72301803      
    3859.500 41.41500550      9.41000000       2.72508745      
    3860.000 33.15810162      9.41000000       2.72640354      
    3860.500 30.96059866      9.41000000       2.70820734      
    3861.000 38.14407415      9.41000000       2.69666412      
    3861.500 47.79143047      9.41000000       2.70336629      
    3862.000 59.66655820      9.41000000       2.72171271      
    3862.500 69.36010130      9.41000000       2.74153610      
    3863.000 69.59823428      9.41000000       2.75350343      
    3863.500 66.96081170      9.41000000       2.76063946      
    3864.000 58.07881231      9.41000000       2.79756472      
    3864.500 55.83007019      9.41000000       2.82065054      
    3865.000 53.43060001      9.41000000       2.82501338      
    3865.500 45.42871290      9.41000208       2.83871524      
    3866.000 37.68190389      9.41000340       2.87204838      
    3866.500 32.15528564      9.40998345       2.89435448      
    3867.000 28.96401701      9.40896545       2.88904193      
    3867.500 26.59756576      9.40658169       2.89400069      
    3868.000 26.85617852      9.40421434       2.86272489      
    3868.500 31.37935588      9.40184000       2.84220608      
    3869.000 36.77325649      9.39946769       2.83571007      
    3869.500 40.08259590      9.39709538       2.83190549      
    3870.000 40.63764558      9.39472308       2.83876310      
    3870.500 38.02700154      9.39235077       2.85894208      
    3871.000 28.39306972      9.38997846       2.87596720      
    3871.500 19.02797438      9.38760615       2.93060648      
    3872.000 16.91593461      9.38523385       2.91600495      
    3872.500 18.24061206      9.38286154       2.88621879      
    3873.000 21.30297730      9.38048923       2.88149483      
    3873.500 27.01862655      9.37811692       2.85071306      
    3874.000 31.43473335      9.37574462       2.83735744      
    3874.500 38.42233685      9.37337231       2.83167574      
    3875.000 50.96625041      9.37100000       2.77323063      
    3875.500 64.50536549      9.36862769       2.73332568      
    3876.000 73.52650658      9.36625538       2.71125827      
    3876.500 75.56431551      9.36388308       2.71062747      
    3877.000 66.56741845      9.36151077       2.73254333      
    3877.500 59.94031811      9.35913846       2.74946422      
    3878.000 51.95959835      9.35676543       2.77889201      
    3878.500 46.47064754      9.35438258       2.80456915      
    3879.000 42.20289469      9.35200754       2.82468088      
    3879.500 38.44099883      9.35019625       2.84659404      
    3880.000 32.84673673      9.35208482       2.86490207      
    3880.500 28.49223488      9.35392377       2.87890146      
    3881.000 28.73734599      9.35575289       2.89121265      
    3881.500 28.35535708      9.35758044       2.87681828      
    3882.000 25.97502306      9.35940800       2.87622082      
    3882.500 22.25374931      9.36123556       2.86711848      
    3883.000 22.04820670      9.36306311       2.87381573      
    3883.500 23.22580860      9.36489067       2.87400513      
    3884.000 29.02825213      9.36671822       2.85676984      
    3884.500 36.04644661      9.36854578       2.87623323      
    3885.000 44.61505329      9.37037333       2.83307082      
    3885.500 51.31641379      9.37220089       2.81157836      
    3886.000 53.00865349      9.37402844       2.78822918      
    3886.500 53.28419674      9.37585600       2.77016419      
    3887.000 53.83342321      9.37768356       2.77121265      
    3887.500 54.15197599      9.37951111       2.75884970      
    3888.000 57.01429631      9.38133867       2.75602470      
    3888.500 59.91355419      9.38316622       2.75022577      
    3889.000 63.76582747      9.38499378       2.73577405      
    3889.500 62.13264534      9.38682133       2.72857100      
    3890.000 62.21236255      9.38864889       2.73647985      
    3890.500 61.77793258      9.39047644       2.74789066      
    3891.000 61.13862050      9.39230400       2.76915956      
    3891.500 63.23024412      9.39413156       2.76041619      
    3892.000 66.98876892      9.39595911       2.75026434      
    3892.500 68.61450732      9.39778667       2.74652417      
    3893.000 63.09958658      9.39961422       2.75478372      
    3893.500 51.63774805      9.40144178       2.78082399      
    3894.000 39.17696075      9.40326933       2.81078435      
    3894.500 26.40717489      9.40509689       2.84047892      
    3895.000 19.25454549      9.40692444       2.88687211      
    3895.500 15.19227311      9.40875200       2.89591039      
    3896.000 16.33405542      9.41057956       2.87491669      
    3896.500 21.30493511      9.41240711       2.86718336      
    3897.000 29.93056084      9.41423467       2.85222269      
    3897.500 41.29565010      9.41606222       2.82357727      
    3898.000 52.46516156      9.41788978       2.79508357      
    3898.500 61.61393408      9.41971733       2.74896003      
    3899.000 63.32162398      9.42154489       2.72626617      
    3899.500 62.49704734      9.42337244       2.72110201      
