~Version Information Block
 VERS.                2.00:     CWLS LOG ASCII STANDARD - VERSION 2.000000
 WRAP.                  NO:     One Line Per Depth Step
#
~Well Information Block
#MNEM.UNIT                     Data                         Information
#----------   ------------------------------------------   ----------------
 STRT.FT                                      150.0000:     START DEPTH
 STOP.FT                                     5250.0000:     STOP DEPTH
 STEP.FT                                        0.5000:     STEP
 NULL.                                       -999.2500:     NULL VALUE
 COMP.           BELDEN & BLAKE & CO LMTD. PARTN. #10A:     COMPANY
 WELL.                                      HICKORY #4:     WELL
 FLD .                                        MAGNOLIA:     FIELD
 LOC .             500'FSL & 500' FWL INSE/Q ON SEC 34:     LOCATION
 LAT .                                    40.611212268:     LATITUDE
 LONG.                                  -81.3085905865:     LONGITUDE
 GDAT.                                           NAD83:     GeoDetic Datum
 TWP .                                            ROSE:     TOWNSHIP
 CNTY.                                         CARROLL:     COUNTY
 STAT.                                              OH:     STATE
 CTRY.                                             USA:     COUNTRY
 SRVC.                                    SCHLUMBERGER:     SERVICE COMPANY
 DATE.                                       8/12/1969:     DATE
 API .                                  34019204780000:     API NUMBER
 UWI .                                  34019204780000:     UWI NUMBER
 TLD .                                            5250:     TOTAL LOG DEPTH
 RDAT.                                              KB:     REFERENCE Datum
 EPD .FT                                          1136:     Elevation Of REF. Datum
 FILE.NM     3401920478_GR-FDC_SCH_120_5227_Y_106_TH45:     FILE NAME
 WSTA.                                             LOC:     Well status
#
~Curve Information Block
#MNEM.UNIT       API CODE      Curve Description
#----------    -------------   -------------------
 DEPT.FT                   :   Depth in Feet
 GR  .         35 310 01 01:   Gamma Ray
 CALI.IN       70 280 01 01:   Caliper
 RHOB.G/C3     42 350 01 01:   Bulk Density
#
~Parameter Information Block
#MNEM.UNIT            Value               Description
#----------    --------------------    -------------------
 RUN .                         ONE:    Run Number
 PDAT.                            :    Permanent Datum
 EPD .FT                    0.0000:    Elevation Of Perm. Datum
 WSTA.                         LOC:    
 E   .FT                    0.0000:    E (Stretch Coefficient Of The Cable)
 TD  .FT                 5250.0000:    Total Depth
#
~Other Information Block
<DescLogPlotStart>   NEURALOG PLOT DEFINITION
PLOTDEFVERSION: 3
LASFILE: S:\Images\GeoPhysRasterLogs\Holding\LAS FILES\3401920478_GR-FDC_SCH_12
DEPTHSCALE: 240.000000
RESOLUTION: 200
DEPTHLABELFREQ: 100.000000
HEAVYGRIDFREQ: 100.000000
MEDIUMGRIDFREQ: 50.000000
LIGHTGRIDFREQ: 10.000000
#
#   TRACK 1
#
STARTTRACK: 
 LEFTX: 0.500000 inch
 RIGHTX: 3.000000 inch
 SCALETYPE: Linear
 NUMCHARTDIVISIONS: 10
CURVE: CALI  6.000000   16.000000  (0,131,131)    Dot               2     N    
CURVE: GR    0.000000   200.000000 (0,0,255)      Solid             2     N    
ENDTRACK: 
#
#   TRACK 2
#
STARTTRACK: 
 LEFTX: 3.500000 inch
 RIGHTX: 8.500000 inch
 SCALETYPE: Linear
 NUMCHARTDIVISIONS: 10
CURVE: RHOB  2.000000   3.000000   (255,0,255)    Solid             2     Y    
BACKUP: 1.000000   2.000000   (255,0,255)    Solid             2    
ENDTRACK: 
<DescLogPlotEnd>
~A DEPTH     GR               CALI             RHOB            
# ...
    1650.000 146.89678711     9.33149670       2.66307115      
    1650.500 145.80715624     9.34839082       2.67294743      
    1651.000 147.47011575     9.35015910       2.69111058      
    1651.500 150.58699439     9.35002682       2.69452437      
    1652.000 150.71519743     9.35000000       2.68552613      
    1652.500 149.28430766     9.35008545       2.67644400      
    1653.000 149.17892640     9.34955718       2.67250365      
    1653.500 152.96385474     9.34787951       2.66462918      
    1654.000 157.33769037     9.35246473       2.65593159      
    1654.500 155.24054633     9.36959313       2.64948024      
    1655.000 148.68787430     9.35845427       2.63613782      
    1655.500 141.82141900     9.37053629       2.62818658      
    1656.000 136.58671615     9.35429670       2.64030992      
    1656.500 133.12422023     9.34803765       2.63890925      
    1657.000 130.21420526     9.35968482       2.63248658      
    1657.500 129.77161463     9.35037686       2.62991246      
    1658.000 132.45340849     9.35050377       2.63409548      
    1658.500 134.92999826     9.36474398       2.64553776      
    1659.000 138.28164880     9.36088452       2.65491240      
    1659.500 140.24076737     9.36618284       2.66074950      
    1660.000 139.34568677     9.35045642       2.65635105      
    1660.500 137.46149879     9.34986498       2.65469864      
    1661.000 137.72637261     9.34982026       2.65677312      
    1661.500 138.33380138     9.34928524       2.66783282      
    1662.000 139.36530174     9.33187445       2.67934718      
    1662.500 141.42600241     9.35009677       2.68039330      
    1663.000 142.22382893     9.35007868       2.67090269      
    1663.500 141.41776802     9.34995620       2.67036821      
    1664.000 138.12660859     9.34987410       2.68163663      
    1664.500 134.95996658     9.35192525       2.68532514      
    1665.000 137.33637638     9.35024992       2.67975568      
    1665.500 142.77824934     9.35054207       2.68117418      
    1666.000 144.09136919     9.35015785       2.68074167      
    1666.500 142.13489927     9.34931870       2.68634644      
    1667.000 139.44570591     9.33366715       2.69248948      
    1667.500 137.99116135     9.34236479       2.69041511      
    1668.000 137.18474658     9.35590049       2.68456682      
    1668.500 138.12296778     9.33181100       2.68167859      
    1669.000 143.13973511     9.34921349       2.68509810      
    1669.500 149.88636928     9.35170976       2.68961977      
    1670.000 153.57449837     9.33075153       2.68910472      
    1670.500 152.62966549     9.33010598       2.68335345      
    1671.000 147.87916495     9.32994996       2.67166717      
    1671.500 140.61551315     9.33000000       2.66494442      
    1672.000 135.95774456     9.33000000       2.66143664      
    1672.500 135.12218205     9.33000000       2.66282531      
    1673.000 142.56748193     9.33000000       2.65831954      
    1673.500 149.07098473     9.32996387       2.67326463      
    1674.000 152.93302761     9.33022392       2.66778828      
    1674.500 153.83921667     9.33070096       2.66527099      
    1675.000 153.58985356     9.34145147       2.65785815      
    1675.500 152.96612935     9.33030508       2.65410530      
    1676.000 153.56543209     9.32983942       2.65629719      
    1676.500 154.31551745     9.32998608       2.66470829      
    1677.000 149.54495128     9.32997216       2.66321327      
    1677.500 143.59692726     9.33001415       2.65348688      
    1678.000 141.94254208     9.33057376       2.64478820      
    1678.500 142.30499034     9.33810685       2.64221746      
    1679.000 143.98877054     9.32878692       2.65632667      
    1679.500 145.54514422     9.32953847       2.68477471      
    1680.000 145.22498870     9.33068974       2.69317872      
    1680.500 144.20772106     9.32848484       2.69240790      
    1681.000 144.98884856     9.32409364       2.68099751      
    1681.500 147.14079210     9.33255639       2.65857571      
    1682.000 147.31739291     9.31993075       2.65654891      
    1682.500 145.38225058     9.31445678       2.66745135      
    1683.000 142.42689624     9.33198595       2.67362065      
    1683.500 140.85109994     9.33201414       2.67487689      
    1684.000 141.34349329     9.32114529       2.67344357      
    1684.500 142.91229048     9.31716166       2.67842078      
    1685.000 144.19992563     9.32771352       2.67219211      
    1685.500 143.73496465     9.33165719       2.67036085      
    1686.000 142.04833430     9.32983145       2.66625012      
    1686.500 141.13711493     9.33126161       2.66544235      
    1687.000 142.50409569     9.30960705       2.66836585      
    1687.500 145.43007965     9.31017900       2.67025555      
    1688.000 144.52094912     9.30997935       2.68234364      
    1688.500 142.18193697     9.31001308       2.69186321      
    1689.000 142.24036688     9.30998362       2.69613348      
    1689.500 145.73153208     9.31054170       2.70096248      
    1690.000 149.74669448     9.29601643       2.70008130      
    1690.500 150.62731252     9.30113561       2.69852069      
    1691.000 148.08381816     9.30809911       2.69531263      
    1691.500 145.45947091     9.30135849       2.69684337      
    1692.000 145.44050561     9.29709408       2.70050305      
    1692.500 147.11780009     9.31037485       2.70072137      
    1693.000 146.95760712     9.30978715       2.69506528      
    1693.500 147.22272380     9.30933282       2.68618897      
    1694.000 149.50391051     9.29302784       2.67011679      
    1694.500 152.30277477     9.31001732       2.66530661      
    1695.000 155.22977875     9.31006239       2.65939160      
    1695.500 155.93127144     9.30993242       2.68119436      
    1696.000 154.14921423     9.30996193       2.69020683      
    1696.500 151.09614689     9.31159076       2.67824289      
    1697.000 149.39019785     9.34514115       2.67765280      
    1697.500 148.21091397     9.33136319       2.68973893      
    1698.000 147.99129637     9.33002093       2.69133589      
    1698.500 149.05916232     9.32993732       2.70005963      
    1699.000 149.52248422     9.33003130       2.69760433      
    1699.500 146.54417401     9.33145138       2.67982537      
    1700.000 144.50356321     9.31511890       2.66483829      
    1700.500 142.57053761     9.30882676       2.67134576      
    1701.000 142.39911671     9.31314801       2.66949840      
    1701.500 142.20333999     9.31021540       2.65834112      
    1702.000 142.19863818     9.30496044       2.65839440      
    1702.500 142.19943040     9.30937537       2.66246868      
    1703.000 142.19611623     9.31004374       2.67126829      
    1703.500 142.22870212     9.30903911       2.67242641      
    1704.000 141.75927552     9.29979496       2.67844456      
    1704.500 141.18645241     9.30858272       2.68243913      
    1705.000 140.36462860     9.30834300       2.68257726      
    1705.500 138.00975942     9.30835845       2.68158885      
    1706.000 135.50285878     9.32516272       2.67386023      
    1706.500 134.23476983     9.33275290       2.66680733      
    1707.000 135.83711996     9.32769361       2.66548497      
    1707.500 137.89067899     9.31958703       2.67627412      
    1708.000 139.21879092     9.31183969       2.68161043      
    1708.500 140.50320574     9.32987864       2.68354943      
    1709.000 142.29315166     9.32814020       2.68148979      
    1709.500 145.02756053     9.32996757       2.67791741      
    1710.000 144.20582165     9.32586497       2.66863415      
    1710.500 141.96345108     9.31745676       2.66708356      
    1711.000 141.01406207     9.33117639       2.68325824      
    1711.500 140.61221570     9.33118031       2.68925784      
    1712.000 140.62152244     9.30892930       2.68245960      
