~Version Information Block
 VERS.                2.00:     CWLS LOG ASCII STANDARD - VERSION 2.000000
 WRAP.                  NO:     One Line Per Depth Step
#
~Well Information Block
#MNEM.UNIT                     Data                         Information
#----------   ------------------------------------------   ----------------
 STRT.FT                                      150.0000:     START DEPTH
 STOP.FT                                     5250.0000:     STOP DEPTH
 STEP.FT                                        0.5000:     STEP
 NULL.                                       -999.2500:     NULL VALUE
 COMP.           BELDEN & BLAKE & CO LMTD. PARTN. #10A:     COMPANY
 WELL.                                      HICKORY #4:     WELL
 FLD .                                        MAGNOLIA:     FIELD
 LOC .             500'FSL & 500' FWL INSE/Q ON SEC 34:     LOCATION
 LAT .                                    40.611212268:     LATITUDE
 LONG.                                  -81.3085905865:     LONGITUDE
 GDAT.                                           NAD83:     GeoDetic Datum
 TWP .                                            ROSE:     TOWNSHIP
 CNTY.                                         CARROLL:     COUNTY
 STAT.                                              OH:     STATE
 CTRY.                                             USA:     COUNTRY
 SRVC.                                    SCHLUMBERGER:     SERVICE COMPANY
 DATE.                                       8/12/1969:     DATE
 API .                                  34019204780000:     API NUMBER
 UWI .                                  34019204780000:     UWI NUMBER
 TLD .                                            5250:     TOTAL LOG DEPTH
 RDAT.                                              KB:     REFERENCE Datum
 EPD .FT                                          1136:     Elevation Of REF. Datum
 FILE.NM     3401920478_GR-FDC_SCH_120_5227_Y_106_TH45:     FILE NAME
 WSTA.                                             LOC:     Well status
#
~Curve Information Block
#MNEM.UNIT       API CODE      Curve Description
#----------    -------------   -------------------
 DEPT.FT                   :   Depth in Feet
 GR  .         35 310 01 01:   Gamma Ray
 CALI.IN       70 280 01 01:   Caliper
 RHOB.G/C3     42 350 01 01:   Bulk Density
#
~Parameter Information Block
#MNEM.UNIT            Value               Description
#----------    --------------------    -------------------
 RUN .                         ONE:    Run Number
 PDAT.                            :    Permanent Datum
 EPD .FT                    0.0000:    Elevation Of Perm. Datum
 WSTA.                         LOC:    
 E   .FT                    0.0000:    E (Stretch Coefficient Of The Cable)
 TD  .FT                 5250.0000:    Total Depth
#
~Other Information Block
<DescLogPlotStart>   NEURALOG PLOT DEFINITION
PLOTDEFVERSION: 3
LASFILE: S:\Images\GeoPhysRasterLogs\Holding\LAS FILES\3401920478_GR-FDC_SCH_12
DEPTHSCALE: 240.000000
RESOLUTION: 200
DEPTHLABELFREQ: 100.000000
HEAVYGRIDFREQ: 100.000000
MEDIUMGRIDFREQ: 50.000000
LIGHTGRIDFREQ: 10.000000
#
#   TRACK 1
#
STARTTRACK: 
 LEFTX: 0.500000 inch
 RIGHTX: 3.000000 inch
 SCALETYPE: Linear
 NUMCHARTDIVISIONS: 10
CURVE: CALI  6.000000   16.000000  (0,131,131)    Dot               2     N    
CURVE: GR    0.000000   200.000000 (0,0,255)      Solid             2     N    
ENDTRACK: 
#
#   TRACK 2
#
STARTTRACK: 
 LEFTX: 3.500000 inch
 RIGHTX: 8.500000 inch
 SCALETYPE: Linear
 NUMCHARTDIVISIONS: 10
CURVE: RHOB  2.000000   3.000000   (255,0,255)    Solid             2     Y    
BACKUP: 1.000000   2.000000   (255,0,255)    Solid             2    
ENDTRACK: 
<DescLogPlotEnd>
~A DEPTH     GR               CALI             RHOB            
# ...
    3275.000 127.83878007     9.75003261       2.59305913      
    3275.500 130.85973772     9.75429599       2.59978971      
    3276.000 135.09983922     9.74990532       2.60870537      
    3276.500 134.38912955     9.76540551       2.62698618      
    3277.000 132.21837037     9.76945676       2.64071112      
    3277.500 133.39983929     9.76737621       2.64116333      
    3278.000 135.17218290     9.77322355       2.63672064      
    3278.500 137.01627535     9.76228756       2.62663056      
    3279.000 138.70936877     9.76319201       2.61947536      
    3279.500 143.40672446     9.74877396       2.61953949      
    3280.000 151.31382066     9.76649657       2.60646894      
    3280.500 157.57714257     9.75024968       2.60521562      
    3281.000 161.56482316     9.74982891       2.60455172      
    3281.500 159.00191301     9.75003109       2.60922483      
    3282.000 152.52187541     9.75005762       2.61143937      
    3282.500 146.36594548     9.76076874       2.60196658      
    3283.000 140.28887276     9.75327612       2.59391353      
    3283.500 137.35538609     9.75629657       2.59171041      
    3284.000 137.44590917     9.77092815       2.59167154      
    3284.500 141.59450923     9.75816273       2.58483628      
    3285.000 148.90525885     9.76032269       2.58069728      
    3285.500 158.30814021     9.75496832       2.58075240      
    3286.000 165.88496565     9.76085133       2.58345794      
    3286.500 167.75552379     9.75345597       2.59981092      
    3287.000 164.73989968     9.74564351       2.60188653      
    3287.500 163.00934367     9.74559702       2.60272690      
    3288.000 163.73989589     9.74912125       2.60402251      
    3288.500 168.50140386     9.73570502       2.60733321      
    3289.000 171.47143557     9.74468031       2.60323573      
    3289.500 175.57033744     9.73739926       2.58611952      
    3290.000 183.85974906     9.74788245       2.57902825      
    3290.500 200.03929314     9.72950558       2.57724178      
    3291.000 205.61770800     9.72978298       2.58504918      
    3291.500 201.76762752     9.73577564       2.58390260      
    3292.000 191.35113956     9.72986604       2.57824357      
    3292.500 186.88239785     9.72984876       2.58491281      
    3293.000 179.13703051     9.73018768       2.59218397      
    3293.500 172.88988917     9.73003694       2.59977488      
    3294.000 168.14842131     9.74793200       2.59558292      
    3294.500 167.41940409     9.73561911       2.59128162      
    3295.000 167.77544916     9.72791354       2.59760774      
    3295.500 176.65663752     9.73732400       2.59454457      
    3296.000 183.42549811     9.74457622       2.59043639      
    3296.500 192.81808942     9.73272749       2.58101817      
    3297.000 194.50334455     9.73128439       2.57030671      
    3297.500 196.77465153     9.71556075       2.55437427      
    3298.000 190.72245422     9.72441334       2.55036284      
    3298.500 187.50462656     9.71729673       2.55227742      
    3299.000 187.23600087     9.71019095       2.56775040      
    3299.500 183.08735253     9.71024120       2.57494629      
    3300.000 173.37267158     9.71000000       2.58364349      
    3300.500 162.77330695     9.70973681       2.59194044      
    3301.000 152.06085152     9.70978008       2.60575433      
    3301.500 143.67883542     9.70369018       2.61136319      
    3302.000 141.39218006     9.71040785       2.61676095      
    3302.500 139.70414964     9.70891975       2.61232955      
    3303.000 136.80016360     9.73120156       2.60522970      
    3303.500 136.44505398     9.72988943       2.60141685      
    3304.000 139.01677989     9.73017532       2.59751844      
    3304.500 138.91687366     9.72368889       2.59438730      
    3305.000 136.12605110     9.72954820       2.61085015      
    3305.500 135.07188730     9.73081706       2.63353230      
    3306.000 130.04921592     9.70862184       2.64374474      
    3306.500 126.09516129     9.71645621       2.64949473      
    3307.000 125.85988522     9.71170905       2.65915615      
    3307.500 127.90307563     9.70034067       2.66408833      
    3308.000 127.84944894     9.70932382       2.65563049      
    3308.500 124.95078107     9.70581578       2.65067487      
    3309.000 125.26290859     9.68916254       2.64814444      
    3309.500 126.42715831     9.69026796       2.63829758      
    3310.000 129.14952048     9.69123750       2.61824517      
    3310.500 131.83819638     9.70464991       2.60944284      
    3311.000 133.44675948     9.69060075       2.60287330      
    3311.500 135.29511540     9.68990497       2.59506385      
    3312.000 136.34084071     9.68952279       2.59141840      
    3312.500 137.29346936     9.68918475       2.58748043      
    3313.000 135.32140831     9.68670227       2.58269574      
    3313.500 130.07450359     9.70338246       2.58311310      
    3314.000 126.41232872     9.70378064       2.58858708      
    3314.500 126.11397599     9.67155224       2.58265112      
    3315.000 128.58687196     9.66484432       2.57810545      
    3315.500 129.25016319     9.65493059       2.57366391      
    3316.000 129.27642852     9.64791684       2.57791016      
    3316.500 130.16488127     9.66669917       2.58048317      
    3317.000 132.94479863     9.64649583       2.57952681      
    3317.500 134.86164200     9.65042602       2.57399285      
    3318.000 135.68218918     9.63796218       2.56639499      
    3318.500 138.60846061     9.63762876       2.55981686      
    3319.000 140.23162789     9.63604460       2.55358479      
    3319.500 141.82763628     9.62984350       2.54700619      
    3320.000 146.28779822     9.62986428       2.53672013      
    3320.500 151.26062395     9.63012131       2.51584738      
    3321.000 156.50477988     9.63018097       2.51033454      
    3321.500 159.80555933     9.62375673       2.50990671      
    3322.000 163.37653987     9.62989840       2.51044296      
    3322.500 164.81836635     9.61263622       2.51477944      
    3323.000 163.64049548     9.60400824       2.52167776      
    3323.500 160.38172897     9.61175774       2.52952713      
    3324.000 155.97216890     9.60864140       2.53911551      
    3324.500 153.37686781     9.61757169       2.54590586      
    3325.000 154.23194232     9.60994184       2.55302697      
    3325.500 158.17828019     9.61012832       2.55751257      
    3326.000 159.01283562     9.61499600       2.55278499      
    3326.500 161.81487427     9.62105603       2.55302223      
    3327.000 166.10249602     9.59964008       2.55557211      
    3327.500 167.66648201     9.60391702       2.55296790      
    3328.000 167.87599349     9.58864052       2.55393994      
    3328.500 164.15843082     9.58972200       2.56074983      
    3329.000 154.16159314     9.59161262       2.57690724      
    3329.500 131.86809083     9.56979936       2.60483183      
    3330.000 105.97564156     9.55018407       2.64426880      
    3330.500 86.47885133      9.51428297       2.67741757      
    3331.000 78.07055700      9.46420200       2.67454547      
    3331.500 87.14075940      9.43912342       2.65973901      
    3332.000 113.21534583     9.41630140       2.62804512      
    3332.500 144.74998234     9.39448923       2.59708633      
    3333.000 178.37924668     9.37251429       2.56873065      
    3333.500 168.87007573     9.35052857       2.54396475      
    3334.000 132.20000000     9.32854286       2.53311584      
    3334.500 76.04133333      9.30655714       2.61169964      
    3335.000 38.60000000      9.28457143       2.65313480      
    3335.500 25.21334365      9.26250018       2.65029923      
    3336.000 19.47034669      9.24119090       2.62913146      
    3336.500 17.00780188      9.21818479       2.63196659      
    3337.000 15.42621631      9.26854898       2.63653169      
