~Version Information Block
 VERS.                2.00:     CWLS LOG ASCII STANDARD - VERSION 2.000000
 WRAP.                  NO:     One Line Per Depth Step
#
~Well Information Block
#MNEM.UNIT                     Data                         Information
#----------   ------------------------------------------   ----------------
 STRT.FT                                      150.0000:     START DEPTH
 STOP.FT                                     5250.0000:     STOP DEPTH
 STEP.FT                                        0.5000:     STEP
 NULL.                                       -999.2500:     NULL VALUE
 COMP.           BELDEN & BLAKE & CO LMTD. PARTN. #10A:     COMPANY
 WELL.                                      HICKORY #4:     WELL
 FLD .                                        MAGNOLIA:     FIELD
 LOC .             500'FSL & 500' FWL INSE/Q ON SEC 34:     LOCATION
 LAT .                                    40.611212268:     LATITUDE
 LONG.                                  -81.3085905865:     LONGITUDE
 GDAT.                                           NAD83:     GeoDetic Datum
 TWP .                                            ROSE:     TOWNSHIP
 CNTY.                                         CARROLL:     COUNTY
 STAT.                                              OH:     STATE
 CTRY.                                             USA:     COUNTRY
 SRVC.                                    SCHLUMBERGER:     SERVICE COMPANY
 DATE.                                       8/12/1969:     DATE
 API .                                  34019204780000:     API NUMBER
 UWI .                                  34019204780000:     UWI NUMBER
 TLD .                                            5250:     TOTAL LOG DEPTH
 RDAT.                                              KB:     REFERENCE Datum
 EPD .FT                                          1136:     Elevation Of REF. Datum
 FILE.NM     3401920478_GR-FDC_SCH_120_5227_Y_106_TH45:     FILE NAME
 WSTA.                                             LOC:     Well status
#
~Curve Information Block
#MNEM.UNIT       API CODE      Curve Description
#----------    -------------   -------------------
 DEPT.FT                   :   Depth in Feet
 GR  .         35 310 01 01:   Gamma Ray
 CALI.IN       70 280 01 01:   Caliper
 RHOB.G/C3     42 350 01 01:   Bulk Density
#
~Parameter Information Block
#MNEM.UNIT            Value               Description
#----------    --------------------    -------------------
 RUN .                         ONE:    Run Number
 PDAT.                            :    Permanent Datum
 EPD .FT                    0.0000:    Elevation Of Perm. Datum
 WSTA.                         LOC:    
 E   .FT                    0.0000:    E (Stretch Coefficient Of The Cable)
 TD  .FT                 5250.0000:    Total Depth
#
~Other Information Block
<DescLogPlotStart>   NEURALOG PLOT DEFINITION
PLOTDEFVERSION: 3
LASFILE: S:\Images\GeoPhysRasterLogs\Holding\LAS FILES\3401920478_GR-FDC_SCH_12
DEPTHSCALE: 240.000000
RESOLUTION: 200
DEPTHLABELFREQ: 100.000000
HEAVYGRIDFREQ: 100.000000
MEDIUMGRIDFREQ: 50.000000
LIGHTGRIDFREQ: 10.000000
#
#   TRACK 1
#
STARTTRACK: 
 LEFTX: 0.500000 inch
 RIGHTX: 3.000000 inch
 SCALETYPE: Linear
 NUMCHARTDIVISIONS: 10
CURVE: CALI  6.000000   16.000000  (0,131,131)    Dot               2     N    
CURVE: GR    0.000000   200.000000 (0,0,255)      Solid             2     N    
ENDTRACK: 
#
#   TRACK 2
#
STARTTRACK: 
 LEFTX: 3.500000 inch
 RIGHTX: 8.500000 inch
 SCALETYPE: Linear
 NUMCHARTDIVISIONS: 10
CURVE: RHOB  2.000000   3.000000   (255,0,255)    Solid             2     Y    
BACKUP: 1.000000   2.000000   (255,0,255)    Solid             2    
ENDTRACK: 
<DescLogPlotEnd>
~A DEPTH     GR               CALI             RHOB            
# ...
    2462.500 141.27154438     9.42986181       2.72352225      
    2463.000 144.88579312     9.42872449       2.71174050      
    2463.500 147.82914998     9.44296584       2.69567129      
    2464.000 149.31417328     9.44970194       2.69086442      
    2464.500 149.05706479     9.44986540       2.67811075      
    2465.000 148.55335087     9.44906012       2.67674285      
    2465.500 150.94782847     9.43971798       2.68133170      
    2466.000 157.20998268     9.44903791       2.66800904      
    2466.500 160.97222994     9.45007855       2.66053962      
    2467.000 164.47896911     9.45008647       2.65575115      
    2467.500 167.23913849     9.44968398       2.65689689      
    2468.000 169.74582206     9.44880570       2.66346803      
    2468.500 172.42428916     9.45416430       2.66819501      
    2469.000 173.02916703     9.44892506       2.66800464      
    2469.500 172.65043175     9.43932204       2.67807590      
    2470.000 171.74128839     9.45467055       2.68548141      
    2470.500 169.97202891     9.44066564       2.69265443      
    2471.000 168.61387424     9.43031636       2.69834765      
    2471.500 166.57564540     9.42953731       2.69554403      
    2472.000 166.22590384     9.43519156       2.69230986      
    2472.500 168.92373887     9.43296645       2.69164638      
    2473.000 170.97731031     9.43015705       2.68443266      
    2473.500 169.90027889     9.42991809       2.67116681      
    2474.000 164.11026243     9.42997131       2.66436670      
    2474.500 158.70403773     9.44728922       2.67394844      
    2475.000 154.04817338     9.43073731       2.68051757      
    2475.500 153.03461685     9.42989757       2.68110346      
    2476.000 155.59909921     9.42819123       2.68268406      
    2476.500 160.81374671     9.44887980       2.67058352      
    2477.000 164.35202309     9.44538290       2.64984751      
    2477.500 163.68793554     9.45240118       2.64484056      
    2478.000 160.95032164     9.45090766       2.67132499      
    2478.500 160.62040406     9.45011634       2.67974413      
    2479.000 161.69526361     9.45008375       2.68882000      
    2479.500 160.59471458     9.44609701       2.69649495      
    2480.000 158.46900549     9.45395863       2.69774790      
    2480.500 158.18920663     9.43177238       2.69900621      
    2481.000 156.97714447     9.45034751       2.69544493      
    2481.500 151.80604990     9.43407536       2.68707262      
    2482.000 146.63378262     9.44445824       2.68426515      
    2482.500 144.61319509     9.43785848       2.68589987      
    2483.000 142.62390490     9.44909946       2.69196766      
    2483.500 142.51771938     9.43954294       2.69975712      
    2484.000 140.29204317     9.44836320       2.69781815      
    2484.500 137.65506309     9.42972373       2.70218000      
    2485.000 134.92073156     9.44210398       2.70768599      
    2485.500 136.45461664     9.44331408       2.71808480      
    2486.000 142.47220454     9.45269914       2.70759703      
    2486.500 148.10860574     9.44998124       2.68767919      
    2487.000 149.00734126     9.44994931       2.67012909      
    2487.500 149.91916616     9.45000000       2.66578227      
    2488.000 154.11019819     9.45000000       2.66572936      
    2488.500 158.75845984     9.45000000       2.66583149      
    2489.000 158.58217952     9.45000000       2.67346030      
    2489.500 152.17178480     9.45000000       2.68202365      
    2490.000 146.60709431     9.45005004       2.69384056      
    2490.500 146.79630496     9.44981536       2.69681586      
    2491.000 148.13260762     9.44881800       2.69963140      
    2491.500 148.20154901     9.43340751       2.70245740      
    2492.000 149.84104426     9.44919167       2.70429241      
    2492.500 150.62009869     9.45051373       2.70530860      
    2493.000 151.34481020     9.45039382       2.70053410      
    2493.500 149.78695869     9.45460586       2.69315709      
    2494.000 148.59517003     9.44846251       2.70187450      
    2494.500 148.82263348     9.46121515       2.70535726      
    2495.000 148.32489640     9.45582898       2.70643086      
    2495.500 145.86105620     9.44831944       2.71590453      
    2496.000 143.55508612     9.46931348       2.71822760      
    2496.500 146.85049024     9.44366159       2.70730888      
    2497.000 148.67537150     9.43651435       2.69594091      
    2497.500 153.51833070     9.43117828       2.69630335      
    2498.000 155.86160959     9.44031476       2.69462867      
    2498.500 154.80503068     9.43032775       2.70423171      
    2499.000 153.74450809     9.44344834       2.71420707      
    2499.500 155.10623102     9.44465545       2.71929802      
    2500.000 157.37369099     9.43515702       2.70571241      
    2500.500 158.37217952     9.44487750       2.68820975      
    2501.000 159.81186952     9.43938924       2.67071920      
    2501.500 160.57879522     9.43279144       2.66959948      
    2502.000 157.00622190     9.45063585       2.67984020      
    2502.500 152.32910194     9.43347946       2.69298186      
    2503.000 148.47201562     9.43830342       2.70467822      
    2503.500 145.15675703     9.43026234       2.70802738      
    2504.000 142.97297417     9.44636419       2.69809000      
    2504.500 142.62912441     9.44824183       2.67915003      
    2505.000 144.02792844     9.43940195       2.67096631      
    2505.500 148.67986159     9.43178279       2.65828453      
    2506.000 154.66505784     9.47453557       2.65690902      
    2506.500 161.08129853     9.43420459       2.65353427      
    2507.000 164.64968839     9.43179182       2.65599259      
    2507.500 164.71335317     9.42980035       2.68331603      
    2508.000 161.96572416     9.42994931       2.69980815      
    2508.500 158.65259809     9.43000000       2.69864540      
    2509.000 155.85515001     9.43000000       2.69732536      
    2509.500 154.95981200     9.43000000       2.68971056      
    2510.000 154.17993657     9.43000000       2.68260337      
    2510.500 152.67590894     9.43000000       2.67649015      
    2511.000 154.55705917     9.43000000       2.67823896      
    2511.500 156.29833669     9.43000000       2.68357345      
    2512.000 159.37999662     9.42997138       2.68635907      
    2512.500 164.04318694     9.42931440       2.68054320      
    2513.000 168.29914996     9.43395933       2.67860068      
    2513.500 170.96145446     9.43423391       2.67396447      
    2514.000 172.90985237     9.42998930       2.68601748      
    2514.500 171.97051688     9.43647285       2.68401516      
    2515.000 167.25720540     9.42836224       2.69158830      
    2515.500 162.22892555     9.43497195       2.69844901      
    2516.000 159.28489398     9.44860535       2.70841132      
    2516.500 156.85911445     9.44556867       2.72355681      
    2517.000 158.57969400     9.44968715       2.72603463      
    2517.500 160.70909658     9.44179526       2.70824785      
    2518.000 161.11352579     9.44794993       2.69740347      
    2518.500 160.56989181     9.43986715       2.69909237      
    2519.000 161.03591560     9.44924172       2.70745047      
    2519.500 161.28551430     9.44376808       2.70587393      
    2520.000 160.82898350     9.44980792       2.69797223      
    2520.500 159.74128206     9.44973681       2.68364204      
    2521.000 158.67636588     9.45002221       2.66310753      
    2521.500 157.50199050     9.45000000       2.65497577      
    2522.000 159.71940791     9.45000000       2.64886478      
    2522.500 162.56452427     9.45000000       2.64208464      
    2523.000 162.97570912     9.45002784       2.62091434      
    2523.500 165.06566602     9.45015721       2.61277381      
    2524.000 168.28936611     9.44949623       2.61066562      
    2524.500 173.30730203     9.43485899       2.60765679      
