~Version Information Block
 VERS.                2.00:     CWLS LOG ASCII STANDARD - VERSION 2.000000
 WRAP.                  NO:     One Line Per Depth Step
#
~Well Information Block
#MNEM.UNIT                     Data                         Information
#----------   ------------------------------------------   ----------------
 STRT.FT                                      150.0000:     START DEPTH
 STOP.FT                                     5250.0000:     STOP DEPTH
 STEP.FT                                        0.5000:     STEP
 NULL.                                       -999.2500:     NULL VALUE
 COMP.           BELDEN & BLAKE & CO LMTD. PARTN. #10A:     COMPANY
 WELL.                                      HICKORY #4:     WELL
 FLD .                                        MAGNOLIA:     FIELD
 LOC .             500'FSL & 500' FWL INSE/Q ON SEC 34:     LOCATION
 LAT .                                    40.611212268:     LATITUDE
 LONG.                                  -81.3085905865:     LONGITUDE
 GDAT.                                           NAD83:     GeoDetic Datum
 TWP .                                            ROSE:     TOWNSHIP
 CNTY.                                         CARROLL:     COUNTY
 STAT.                                              OH:     STATE
 CTRY.                                             USA:     COUNTRY
 SRVC.                                    SCHLUMBERGER:     SERVICE COMPANY
 DATE.                                       8/12/1969:     DATE
 API .                                  34019204780000:     API NUMBER
 UWI .                                  34019204780000:     UWI NUMBER
 TLD .                                            5250:     TOTAL LOG DEPTH
 RDAT.                                              KB:     REFERENCE Datum
 EPD .FT                                          1136:     Elevation Of REF. Datum
 FILE.NM     3401920478_GR-FDC_SCH_120_5227_Y_106_TH45:     FILE NAME
 WSTA.                                             LOC:     Well status
#
~Curve Information Block
#MNEM.UNIT       API CODE      Curve Description
#----------    -------------   -------------------
 DEPT.FT                   :   Depth in Feet
 GR  .         35 310 01 01:   Gamma Ray
 CALI.IN       70 280 01 01:   Caliper
 RHOB.G/C3     42 350 01 01:   Bulk Density
#
~Parameter Information Block
#MNEM.UNIT            Value               Description
#----------    --------------------    -------------------
 RUN .                         ONE:    Run Number
 PDAT.                            :    Permanent Datum
 EPD .FT                    0.0000:    Elevation Of Perm. Datum
 WSTA.                         LOC:    
 E   .FT                    0.0000:    E (Stretch Coefficient Of The Cable)
 TD  .FT                 5250.0000:    Total Depth
#
~Other Information Block
<DescLogPlotStart>   NEURALOG PLOT DEFINITION
PLOTDEFVERSION: 3
LASFILE: S:\Images\GeoPhysRasterLogs\Holding\LAS FILES\3401920478_GR-FDC_SCH_12
DEPTHSCALE: 240.000000
RESOLUTION: 200
DEPTHLABELFREQ: 100.000000
HEAVYGRIDFREQ: 100.000000
MEDIUMGRIDFREQ: 50.000000
LIGHTGRIDFREQ: 10.000000
#
#   TRACK 1
#
STARTTRACK: 
 LEFTX: 0.500000 inch
 RIGHTX: 3.000000 inch
 SCALETYPE: Linear
 NUMCHARTDIVISIONS: 10
CURVE: CALI  6.000000   16.000000  (0,131,131)    Dot               2     N    
CURVE: GR    0.000000   200.000000 (0,0,255)      Solid             2     N    
ENDTRACK: 
#
#   TRACK 2
#
STARTTRACK: 
 LEFTX: 3.500000 inch
 RIGHTX: 8.500000 inch
 SCALETYPE: Linear
 NUMCHARTDIVISIONS: 10
CURVE: RHOB  2.000000   3.000000   (255,0,255)    Solid             2     Y    
BACKUP: 1.000000   2.000000   (255,0,255)    Solid             2    
ENDTRACK: 
<DescLogPlotEnd>
~A DEPTH     GR               CALI             RHOB            
# ...
    2712.500 178.15755763     9.43040552       2.64923061      
    2713.000 175.31704597     9.43033998       2.65027478      
    2713.500 170.14454441     9.45135669       2.65178727      
    2714.000 162.26193244     9.44588448       2.65585118      
    2714.500 158.89094853     9.44628037       2.65862836      
    2715.000 159.17581694     9.45217908       2.66868886      
    2715.500 163.23525430     9.43023286       2.68011831      
    2716.000 170.34141018     9.42975352       2.68130067      
    2716.500 174.79546358     9.42781895       2.67202364      
    2717.000 173.30583010     9.45078795       2.65443124      
    2717.500 166.97410577     9.43522946       2.65003934      
    2718.000 157.49218529     9.43514827       2.65325738      
    2718.500 146.46631546     9.44742108       2.67155571      
    2719.000 142.74366181     9.42851823       2.69313922      
    2719.500 143.69045094     9.44292599       2.69249764      
    2720.000 148.44908657     9.45005098       2.68088625      
    2720.500 155.64195654     9.45017135       2.66707771      
    2721.000 164.17166785     9.45014915       2.65117762      
    2721.500 172.56567872     9.45033317       2.64557099      
    2722.000 178.50242787     9.44322841       2.64303691      
    2722.500 177.65743653     9.43438456       2.65690583      
    2723.000 176.24162165     9.42786357       2.66906878      
    2723.500 178.46851932     9.44883470       2.66695760      
    2724.000 180.56783138     9.44032376       2.65258895      
    2724.500 181.91922468     9.44553880       2.64169033      
    2725.000 182.94782182     9.44725657       2.63579868      
    2725.500 180.36036870     9.44375414       2.63969412      
    2726.000 176.68513739     9.45040178       2.63633154      
    2726.500 174.62435797     9.44881691       2.63908951      
    2727.000 176.36596413     9.45589378       2.63205939      
    2727.500 177.12839697     9.44996191       2.62343552      
    2728.000 176.17111055     9.43740500       2.60913763      
    2728.500 174.43738514     9.44994283       2.60506112      
    2729.000 173.62984997     9.44985812       2.60852212      
    2729.500 172.85330150     9.45002221       2.61357627      
    2730.000 173.71235971     9.45000000       2.61012319      
    2730.500 174.66351359     9.45000000       2.60342532      
    2731.000 178.23815060     9.44995799       2.59853700      
    2731.500 178.54895614     9.45051423       2.59498693      
    2732.000 176.64019748     9.45022771       2.58855329      
    2732.500 176.58920534     9.45218844       2.58879290      
    2733.000 176.02418433     9.45009402       2.58874644      
    2733.500 170.96790825     9.45604642       2.58868540      
    2734.000 166.58795940     9.44854734       2.58852394      
    2734.500 168.93129029     9.46555096       2.57236478      
    2735.000 172.04701484     9.45856396       2.55181835      
    2735.500 174.98890810     9.45047043       2.53015985      
    2736.000 176.50458079     9.44728351       2.53593756      
    2736.500 179.44908395     9.43085991       2.55747830      
    2737.000 183.02944053     9.44962017       2.56562303      
    2737.500 191.67727344     9.45012799       2.56048211      
    2738.000 201.13721963     9.45000533       2.56051065      
    2738.500 208.81843106     9.45000000       2.56971713      
    2739.000 213.85820237     9.44989285       2.58846509      
    2739.500 206.34366532     9.45007750       2.59653390      
    2740.000 200.32346026     9.45496950       2.59694195      
    2740.500 195.71819749     9.46459574       2.60345759      
    2741.000 186.48347919     9.44971108       2.61263671      
    2741.500 177.28982609     9.44996397       2.62064895      
    2742.000 167.67788566     9.44992181       2.64270492      
    2742.500 160.49088321     9.44997279       2.66523825      
    2743.000 153.08637298     9.45426926       2.68468826      
    2743.500 149.04732137     9.44929441       2.68395607      
    2744.000 147.31089350     9.46629420       2.67826418      
    2744.500 145.78464267     9.45499703       2.67121308      
    2745.000 144.87383048     9.44572356       2.67792694      
    2745.500 142.53226685     9.42971572       2.69431909      
    2746.000 139.78821583     9.45112365       2.70671142      
    2746.500 135.86862436     9.44997270       2.71414428      
    2747.000 132.46610010     9.44434293       2.72192693      
    2747.500 136.42557078     9.44469826       2.72692596      
    2748.000 141.79457316     9.44206065       2.72211916      
    2748.500 145.03844260     9.42901305       2.71195900      
    2749.000 148.32852479     9.44547557       2.68821896      
    2749.500 152.65678514     9.44360202       2.66441060      
    2750.000 158.45462675     9.45211755       2.64013739      
    2750.500 162.04759571     9.44302664       2.61414763      
    2751.000 161.77188590     9.44370449       2.59968438      
    2751.500 162.19695537     9.45028749       2.57506907      
    2752.000 162.56258580     9.43674648       2.56318928      
    2752.500 164.53074864     9.44267387       2.54452933      
    2753.000 163.10062306     9.45055669       2.52594093      
    2753.500 165.78892278     9.43290290       2.51244818      
    2754.000 166.80341457     9.44740125       2.50475923      
    2754.500 167.26523933     9.44486766       2.50880952      
    2755.000 163.55528292     9.45030051       2.52254855      
    2755.500 162.18792713     9.45069291       2.61819128      
    2756.000 161.71005037     9.46434634       2.63386725      
    2756.500 161.38087655     9.45014846       2.63173819      
    2757.000 163.14201510     9.45008411       2.62426642      
    2757.500 170.50087949     9.44997800       2.60947364      
    2758.000 179.28103271     9.45515838       2.57861103      
    2758.500 186.49687462     9.44882927       2.57988309      
    2759.000 194.52661156     9.44871405       2.57085948      
    2759.500 201.74969160     9.43977643       2.55793640      
    2760.000 205.15224968     9.44903791       2.57301698      
    2760.500 210.02494799     9.45009085       2.56011923      
    2761.000 213.09115222     9.45028661       2.55574649      
    2761.500 212.46792176     9.44869949       2.56468775      
    2762.000 207.10603279     9.46516610       2.57956930      
    2762.500 197.81897295     9.44959077       2.59596136      
    2763.000 194.32146937     9.45028718       2.61096395      
    2763.500 190.90115943     9.44863253       2.62574262      
    2764.000 192.42801888     9.46281018       2.63280427      
    2764.500 193.09422690     9.44966887       2.61273893      
    2765.000 191.64462817     9.45001968       2.60152620      
    2765.500 190.47064624     9.44998412       2.59761775      
    2766.000 191.97993745     9.45000000       2.59292326      
    2766.500 193.93069963     9.45001726       2.59063271      
    2767.000 186.43217855     9.44996505       2.59321421      
    2767.500 176.46292481     9.44992410       2.60089581      
    2768.000 168.76739136     9.44207255       2.60795831      
    2768.500 165.10980057     9.45232167       2.59799909      
    2769.000 173.02927334     9.46058317       2.57856461      
    2769.500 182.74854257     9.45087572       2.56036643      
    2770.000 201.13445906     9.44984291       2.55352893      
    2770.500 198.49277597     9.45089099       2.54803190      
    2771.000 220.57254678     9.46044064       2.54159421      
    2771.500 230.43882751     9.45162454       2.54004091      
    2772.000 232.86674740     9.46704571       2.54541250      
    2772.500 215.11770870     9.45077695       2.56446767      
    2773.000 199.70153673     9.45963339       2.57707162      
    2773.500 189.51526692     9.45773646       2.59148149      
    2774.000 179.93489227     9.46966760       2.58935658      
    2774.500 178.73710477     9.47064360       2.58583480      
