~Version Information Block
 VERS.                2.00:     CWLS LOG ASCII STANDARD - VERSION 2.000000
 WRAP.                  NO:     One Line Per Depth Step
#
~Well Information Block
#MNEM.UNIT                     Data                         Information
#----------   ------------------------------------------   ----------------
 STRT.FT                                      150.0000:     START DEPTH
 STOP.FT                                     5250.0000:     STOP DEPTH
 STEP.FT                                        0.5000:     STEP
 NULL.                                       -999.2500:     NULL VALUE
 COMP.           BELDEN & BLAKE & CO LMTD. PARTN. #10A:     COMPANY
 WELL.                                      HICKORY #4:     WELL
 FLD .                                        MAGNOLIA:     FIELD
 LOC .             500'FSL & 500' FWL INSE/Q ON SEC 34:     LOCATION
 LAT .                                    40.611212268:     LATITUDE
 LONG.                                  -81.3085905865:     LONGITUDE
 GDAT.                                           NAD83:     GeoDetic Datum
 TWP .                                            ROSE:     TOWNSHIP
 CNTY.                                         CARROLL:     COUNTY
 STAT.                                              OH:     STATE
 CTRY.                                             USA:     COUNTRY
 SRVC.                                    SCHLUMBERGER:     SERVICE COMPANY
 DATE.                                       8/12/1969:     DATE
 API .                                  34019204780000:     API NUMBER
 UWI .                                  34019204780000:     UWI NUMBER
 TLD .                                            5250:     TOTAL LOG DEPTH
 RDAT.                                              KB:     REFERENCE Datum
 EPD .FT                                          1136:     Elevation Of REF. Datum
 FILE.NM     3401920478_GR-FDC_SCH_120_5227_Y_106_TH45:     FILE NAME
 WSTA.                                             LOC:     Well status
#
~Curve Information Block
#MNEM.UNIT       API CODE      Curve Description
#----------    -------------   -------------------
 DEPT.FT                   :   Depth in Feet
 GR  .         35 310 01 01:   Gamma Ray
 CALI.IN       70 280 01 01:   Caliper
 RHOB.G/C3     42 350 01 01:   Bulk Density
#
~Parameter Information Block
#MNEM.UNIT            Value               Description
#----------    --------------------    -------------------
 RUN .                         ONE:    Run Number
 PDAT.                            :    Permanent Datum
 EPD .FT                    0.0000:    Elevation Of Perm. Datum
 WSTA.                         LOC:    
 E   .FT                    0.0000:    E (Stretch Coefficient Of The Cable)
 TD  .FT                 5250.0000:    Total Depth
#
~Other Information Block
<DescLogPlotStart>   NEURALOG PLOT DEFINITION
PLOTDEFVERSION: 3
LASFILE: S:\Images\GeoPhysRasterLogs\Holding\LAS FILES\3401920478_GR-FDC_SCH_12
DEPTHSCALE: 240.000000
RESOLUTION: 200
DEPTHLABELFREQ: 100.000000
HEAVYGRIDFREQ: 100.000000
MEDIUMGRIDFREQ: 50.000000
LIGHTGRIDFREQ: 10.000000
#
#   TRACK 1
#
STARTTRACK: 
 LEFTX: 0.500000 inch
 RIGHTX: 3.000000 inch
 SCALETYPE: Linear
 NUMCHARTDIVISIONS: 10
CURVE: CALI  6.000000   16.000000  (0,131,131)    Dot               2     N    
CURVE: GR    0.000000   200.000000 (0,0,255)      Solid             2     N    
ENDTRACK: 
#
#   TRACK 2
#
STARTTRACK: 
 LEFTX: 3.500000 inch
 RIGHTX: 8.500000 inch
 SCALETYPE: Linear
 NUMCHARTDIVISIONS: 10
CURVE: RHOB  2.000000   3.000000   (255,0,255)    Solid             2     Y    
BACKUP: 1.000000   2.000000   (255,0,255)    Solid             2    
ENDTRACK: 
<DescLogPlotEnd>
~A DEPTH     GR               CALI             RHOB            
# ...
    4087.500 18.85785984      9.59065934       2.70150757      
    4088.000 18.37770837      9.58841758       2.73102372      
    4088.500 16.55528676      9.58617582       2.80732854      
    4089.000 15.40119961      9.58393407       2.83734817      
    4089.500 14.14187579      9.58169231       2.84099894      
    4090.000 13.51188134      9.57945055       2.82203390      
    4090.500 14.29343004      9.57720879       2.73828514      
    4091.000 15.78325925      9.57443715       2.56451756      
    4091.500 16.57126405      9.56865877       2.37351944      
    4092.000 15.64494922      9.55749982       2.13609172      
    4092.500 13.93631091      10.09369191      1.93497840      
    4093.000 12.94083818      12.48619373      1.83599202      
    4093.500 11.92098122      13.45217393      1.83898305      
    4094.000 11.77898045      13.53492682      1.85892323      
    4094.500 11.39662893      13.82478597      1.86208088      
    4095.000 11.00763264      14.31380656      1.84838334      
    4095.500 11.00113979      14.25121969      1.84423265      
    4096.000 11.30482031      13.39632934      1.86091725      
    4096.500 10.89936362      13.14901790      1.94135024      
    4097.000 10.31867491      13.54460609      2.05788634      
    4097.500 10.29934154      10.00580452      2.22482552      
    4098.000 9.61909494       10.60267841      2.03895513      
    4098.500 8.97001556       11.29125015      1.83369492      
    4099.000 8.95950529       12.63347435      1.73427318      
    4099.500 9.52464777       13.45028157      1.72333001      
    4100.000 9.96287155       13.42615804      1.73678963      
    4100.500 10.17824777      13.32130831      1.75024925      
    4101.000 9.27350619       12.78112237      1.79065458      
    4101.500 7.95920398       10.58976355      1.80485581      
    4102.000 5.77342258       12.24751614      1.78763785      
    4102.500 7.84297509       14.54329370      1.80745507      
    4103.000 8.28473655       14.94925415      1.81124869      
    4103.500 9.57784093       15.22291036      1.77519276      
    4104.000 11.59835094      15.09548428      1.74606562      
    4104.500 10.22420525      13.47837762      1.74643396      
    4105.000 8.90313166       13.63137833      1.81739683      
    4105.500 8.61642366       11.56120743      1.90161644      
    4106.000 8.84256277       13.17505380      1.89739948      
    4106.500 8.97744593       14.35235799      1.93095957      
    4107.000 8.70811945       14.71347500      1.97261205      
    4107.500 8.44427448       15.94497437      1.99302557      
    4108.000 6.40073468       16.05331331      1.97415687      
    4108.500 9.48890479       16.05862868      1.93718734      
    4109.000 9.51010461       16.12753372      1.89589251      
    4109.500 9.54466694       16.15548207      1.84551687      
    4110.000 10.89206379      16.07907505      1.78272198      
    4110.500 9.55942353       15.29479295      1.80198630      
    4111.000 10.08327550      11.82930248      1.83296826      
    4111.500 10.06329096      11.80560298      1.86170600      
    4112.000 9.67243013       11.91107415      1.89528017      
    4112.500 9.40630221       12.65347429      1.91798326      
    4113.000 9.39461395       14.15487450      1.94244699      
    4113.500 9.07773684       14.57962841      1.96292724      
    4114.000 8.01987464       15.14812294      1.98170922      
    4114.500 7.50089582       15.52274365      1.98894968      
    4115.000 7.90557247       15.73051151      1.97692658      
    4115.500 7.03093082       15.82591602      1.94025493      
    4116.000 8.82854718       16.10221324      1.91882711      
    4116.500 7.46445609       16.08592272      1.89848168      
    4117.000 8.96394549       16.04909610      1.83658569      
    4117.500 10.14894198      16.02455723      1.75899022      
    4118.000 12.23381507      15.89871417      1.73478188      
    4118.500 11.11348851      14.03748974      1.72971695      
    4119.000 10.13371272      14.09762996      1.73690341      
    4119.500 9.40616375       11.16325160      1.74599777      
    4120.000 8.75877492       13.63656466      1.73987058      
    4120.500 8.19311476       14.77667601      1.75881797      
    4121.000 8.16737653       15.04131020      1.78119347      
    4121.500 8.72849627       15.57315796      1.79293498      
    4122.000 8.73560579       15.40629462      1.79983746      
    4122.500 7.57705696       14.26394030      1.81161005      
    4123.000 7.40017404       14.15755473      1.84775341      
    4123.500 7.40287236       15.11522422      1.87029120      
    4124.000 6.40598805       15.44711532      1.89315391      
    4124.500 6.59521096       15.75284790      1.89358083      
    4125.000 6.87561899       16.02061683      1.88529404      
    4125.500 8.30083294       16.01442161      1.86257681      
    4126.000 10.15683377      15.97870323      1.82091300      
    4126.500 13.00392314      15.20988429      1.81559293      
    4127.000 17.56244336      13.52537778      1.93662726      
    4127.500 21.74850327      12.31200000      2.00267198      
    4128.000 28.81540137      9.49000000       2.06031904      
    4128.500 30.17614484      9.32426732       2.29527829      
    4129.000 30.66948873      9.34919747       2.63923883      
    4129.500 30.82205193      9.34970811       2.63784128      
    4130.000 30.99453896      9.34997216       2.62855664      
    4130.500 31.30465811      9.35000000       2.62753956      
    4131.000 30.10547567      9.35000000       2.62176161      
    4131.500 29.33551914      9.35000000       2.61454973      
    4132.000 32.07239642      9.35000000       2.61819155      
    4132.500 33.67639830      9.35000000       2.63511874      
    4133.000 35.17223744      9.35000000       2.67415211      
    4133.500 38.45591636      9.35000000       2.67974603      
    4134.000 39.33592098      9.35000000       2.69014378      
    4134.500 39.88975985      9.35000000       2.70854797      
    4135.000 40.92760504      9.35000000       2.73061647      
    4135.500 43.00247801      9.35000000       2.77048895      
    4136.000 46.05316992      9.35000000       2.77822919      
    4136.500 47.45936661      9.35000000       2.77581115      
    4137.000 46.17654057      9.35000000       2.78408390      
    4137.500 46.57412504      9.35000000       2.79184566      
    4138.000 46.24955989      9.35000000       2.78641458      
    4138.500 48.70070534      9.35000000       2.79733018      
    4139.000 50.48878029      9.35000000       2.80308495      
    4139.500 47.03682363      9.35000000       2.81621782      
    4140.000 42.83547736      9.35000000       2.83460921      
    4140.500 46.35751532      9.35000000       2.82385092      
    4141.000 55.57688322      9.35000000       2.78582615      
    4141.500 62.08538322      9.35000000       2.74897540      
    4142.000 67.60665824      9.35000000       2.70922292      
    4142.500 70.72777870      9.35000000       2.67786703      
    4143.000 70.41113406      9.35000000       2.67765728      
    4143.500 70.07379642      9.35000000       2.68954718      
    4144.000 71.83304962      9.35000000       2.70136832      
    4144.500 60.15496407      9.35000000       2.69933084      
    4145.000 56.17344364      9.35000000       2.72485200      
    4145.500 61.76165053      9.35000000       2.72628215      
    4146.000 63.88792343      9.35000000       2.71351680      
    4146.500 59.94125005      9.35000000       2.69602809      
    4147.000 56.81720507      9.35000000       2.69523931      
    4147.500 53.58672517      9.35000000       2.71993887      
    4148.000 50.21345215      9.35000000       2.74227654      
    4148.500 46.51115129      9.35000000       2.74932178      
    4149.000 47.61253343      9.35000000       2.75414392      
    4149.500 41.12453220      9.34999905       2.75548899      
