~Version Information Block
 VERS.                2.00:     CWLS LOG ASCII STANDARD - VERSION 2.000000
 WRAP.                  NO:     One Line Per Depth Step
#
~Well Information Block
#MNEM.UNIT                     Data                         Information
#----------   ------------------------------------------   ----------------
 STRT.FT                                      150.0000:     START DEPTH
 STOP.FT                                     5250.0000:     STOP DEPTH
 STEP.FT                                        0.5000:     STEP
 NULL.                                       -999.2500:     NULL VALUE
 COMP.           BELDEN & BLAKE & CO LMTD. PARTN. #10A:     COMPANY
 WELL.                                      HICKORY #4:     WELL
 FLD .                                        MAGNOLIA:     FIELD
 LOC .             500'FSL & 500' FWL INSE/Q ON SEC 34:     LOCATION
 LAT .                                    40.611212268:     LATITUDE
 LONG.                                  -81.3085905865:     LONGITUDE
 GDAT.                                           NAD83:     GeoDetic Datum
 TWP .                                            ROSE:     TOWNSHIP
 CNTY.                                         CARROLL:     COUNTY
 STAT.                                              OH:     STATE
 CTRY.                                             USA:     COUNTRY
 SRVC.                                    SCHLUMBERGER:     SERVICE COMPANY
 DATE.                                       8/12/1969:     DATE
 API .                                  34019204780000:     API NUMBER
 UWI .                                  34019204780000:     UWI NUMBER
 TLD .                                            5250:     TOTAL LOG DEPTH
 RDAT.                                              KB:     REFERENCE Datum
 EPD .FT                                          1136:     Elevation Of REF. Datum
 FILE.NM     3401920478_GR-FDC_SCH_120_5227_Y_106_TH45:     FILE NAME
 WSTA.                                             LOC:     Well status
#
~Curve Information Block
#MNEM.UNIT       API CODE      Curve Description
#----------    -------------   -------------------
 DEPT.FT                   :   Depth in Feet
 GR  .         35 310 01 01:   Gamma Ray
 CALI.IN       70 280 01 01:   Caliper
 RHOB.G/C3     42 350 01 01:   Bulk Density
#
~Parameter Information Block
#MNEM.UNIT            Value               Description
#----------    --------------------    -------------------
 RUN .                         ONE:    Run Number
 PDAT.                            :    Permanent Datum
 EPD .FT                    0.0000:    Elevation Of Perm. Datum
 WSTA.                         LOC:    
 E   .FT                    0.0000:    E (Stretch Coefficient Of The Cable)
 TD  .FT                 5250.0000:    Total Depth
#
~Other Information Block
<DescLogPlotStart>   NEURALOG PLOT DEFINITION
PLOTDEFVERSION: 3
LASFILE: S:\Images\GeoPhysRasterLogs\Holding\LAS FILES\3401920478_GR-FDC_SCH_12
DEPTHSCALE: 240.000000
RESOLUTION: 200
DEPTHLABELFREQ: 100.000000
HEAVYGRIDFREQ: 100.000000
MEDIUMGRIDFREQ: 50.000000
LIGHTGRIDFREQ: 10.000000
#
#   TRACK 1
#
STARTTRACK: 
 LEFTX: 0.500000 inch
 RIGHTX: 3.000000 inch
 SCALETYPE: Linear
 NUMCHARTDIVISIONS: 10
CURVE: CALI  6.000000   16.000000  (0,131,131)    Dot               2     N    
CURVE: GR    0.000000   200.000000 (0,0,255)      Solid             2     N    
ENDTRACK: 
#
#   TRACK 2
#
STARTTRACK: 
 LEFTX: 3.500000 inch
 RIGHTX: 8.500000 inch
 SCALETYPE: Linear
 NUMCHARTDIVISIONS: 10
CURVE: RHOB  2.000000   3.000000   (255,0,255)    Solid             2     Y    
BACKUP: 1.000000   2.000000   (255,0,255)    Solid             2    
ENDTRACK: 
<DescLogPlotEnd>
~A DEPTH     GR               CALI             RHOB            
# ...
    2212.500 151.67843007     9.39010598       2.72039799      
    2213.000 149.48473633     9.39072369       2.71735629      
    2213.500 148.66031287     9.41145147       2.71293929      
    2214.000 151.46060161     9.41041105       2.71171126      
    2214.500 154.42962374     9.41030968       2.71932097      
    2215.000 155.16650982     9.40441732       2.72677279      
    2215.500 154.56833155     9.36914499       2.74315461      
    2216.000 153.35454509     9.36905081       2.75204799      
    2216.500 149.41032315     9.36763584       2.76201493      
    2217.000 142.64362315     9.37400113       2.76410055      
    2217.500 139.03501103     9.37044908       2.75222610      
    2218.000 137.70004924     9.38480095       2.73534138      
    2218.500 140.41998274     9.37097533       2.70736815      
    2219.000 144.96870942     9.36820829       2.70358707      
    2219.500 150.47535219     9.37044427       2.70061632      
    2220.000 151.79349048     9.38748693       2.69759772      
    2220.500 151.75034294     9.37476872       2.69456453      
    2221.000 152.98566153     9.36856244       2.70149898      
    2221.500 153.69670064     9.38451367       2.70253062      
    2222.000 153.05789664     9.37505808       2.69853758      
    2222.500 154.10922717     9.36903666       2.70668121      
    2223.000 154.64467700     9.37951803       2.71251345      
    2223.500 154.11740704     9.39151659       2.71998280      
    2224.000 153.74939915     9.39429269       2.71506495      
    2224.500 154.94427514     9.41231762       2.72142773      
    2225.000 153.98516994     9.40447248       2.72914308      
    2225.500 150.49528443     9.41081522       2.73026519      
    2226.000 146.68299110     9.40057229       2.72744439      
    2226.500 145.04927080     9.39131561       2.71778808      
    2227.000 145.34165989     9.39959449       2.71501346      
    2227.500 147.03509604     9.40962351       2.70473648      
    2228.000 147.75714166     9.40452936       2.70697024      
    2228.500 145.88210940     9.39649141       2.69819132      
    2229.000 145.82979338     9.38928907       2.68872301      
    2229.500 149.78865033     9.40043828       2.68266029      
    2230.000 153.13310593     9.40255203       2.68477758      
    2230.500 151.25306210     9.39471387       2.69577790      
    2231.000 148.94621776     9.39012809       2.70706963      
    2231.500 147.58975001     9.39010245       2.71546787      
    2232.000 144.19783215     9.38944035       2.71731184      
    2232.500 141.03200439     9.37012534       2.70527879      
    2233.000 142.24665006     9.36784994       2.70540152      
    2233.500 146.27949424     9.36866648       2.69383304      
    2234.000 150.13190131     9.38999550       2.68331790      
    2234.500 151.89960912     9.37067445       2.68216941      
    2235.000 152.79567098     9.36975801       2.67926889      
    2235.500 153.81347489     9.37129422       2.67495098      
    2236.000 158.24706618     9.38026683       2.68387780      
    2236.500 158.28012675     9.38853125       2.68970414      
    2237.000 156.39487009     9.36886438       2.68424619      
    2237.500 156.55707625     9.37172219       2.68198908      
    2238.000 158.39756852     9.37476808       2.69034847      
    2238.500 158.43610433     9.38952409       2.68498150      
    2239.000 157.88076464     9.38927021       2.68869581      
    2239.500 153.00721393     9.38010819       2.69709568      
    2240.000 149.65165188     9.38396711       2.68763607      
    2240.500 152.91225641     9.38793687       2.68196427      
    2241.000 158.30634912     9.37210423       2.68170146      
    2241.500 162.59872879     9.38502266       2.67837251      
    2242.000 164.94874155     9.37703542       2.67070640      
    2242.500 161.59037062     9.36795922       2.67939845      
    2243.000 154.36500727     9.39147418       2.69374426      
    2243.500 149.25644801     9.38587121       2.69936660      
    2244.000 147.67191745     9.38088362       2.71694697      
    2244.500 150.08413559     9.37101215       2.73171401      
    2245.000 152.78120799     9.36502523       2.73513165      
    2245.500 155.51969769     9.35488175       2.73424598      
    2246.000 156.14596755     9.34879684       2.72042456      
    2246.500 154.60058623     9.33542876       2.71266000      
    2247.000 152.94944261     9.34936895       2.70514716      
    2247.500 153.69423049     9.35012476       2.70035473      
    2248.000 153.86248818     9.35111625       2.69572773      
    2248.500 152.16395124     9.36313185       2.70357929      
    2249.000 150.67065757     9.37182326       2.72201345      
    2249.500 148.19028806     9.36968535       2.74273701      
    2250.000 144.65600330     9.37009742       2.74597614      
    2250.500 142.82490088     9.36812544       2.73998420      
    2251.000 145.43971158     9.36987599       2.72582673      
    2251.500 145.47627885     9.36756116       2.72613843      
    2252.000 146.10940882     9.37014528       2.71425317      
    2252.500 148.10896656     9.36837383       2.70691112      
    2253.000 148.07918517     9.38534474       2.69437992      
    2253.500 148.55144447     9.39153682       2.69397102      
    2254.000 150.48060783     9.38808664       2.69951646      
    2254.500 151.43722056     9.38593200       2.70344976      
    2255.000 150.22660488     9.37384683       2.70004141      
    2255.500 149.95148420     9.39057270       2.69161006      
    2256.000 152.20944547     9.40415666       2.67707540      
    2256.500 154.19457020     9.37914230       2.66622450      
    2257.000 158.85802317     9.38502803       2.64395182      
    2257.500 165.34621224     9.36702404       2.62465109      
    2258.000 172.70356018     9.38652976       2.60782446      
    2258.500 176.82784659     9.39123389       2.60088307      
    2259.000 174.27908243     9.39037291       2.60757271      
    2259.500 172.43933856     9.38993776       2.58575241      
    2260.000 169.18263413     9.39000000       2.57802393      
    2260.500 163.79527643     9.38995786       2.56343281      
    2261.000 159.10919663     9.39016314       2.56062066      
    2261.500 156.56802207     9.39067273       2.54986377      
    2262.000 153.05359717     9.40662618       2.54427672      
    2262.500 148.79699591     9.39001592       2.54734967      
    2263.000 147.91050440     9.38991540       2.55529745      
    2263.500 151.61734979     9.38991073       2.56321809      
    2264.000 158.35138290     9.38439805       2.56791040      
    2264.500 165.91628924     9.39381189       2.56957585      
    2265.000 173.69616199     9.37965926       2.55759012      
    2265.500 182.78802856     9.36973528       2.55017710      
    2266.000 191.27942988     9.38977530       2.55568547      
    2266.500 200.48374856     9.37399694       2.55879580      
    2267.000 203.15973332     9.37819537       2.54364599      
    2267.500 204.83059534     9.36867562       2.53340299      
    2268.000 206.49901374     9.39054814       2.53871564      
    2268.500 207.55788493     9.38144374       2.53741584      
    2269.000 213.21592621     9.37068105       2.51622012      
    2269.500 216.23288638     9.38043871       2.51399676      
    2270.000 227.40606887     9.37088981       2.49543503      
    2270.500 227.59641788     9.37127263       2.49288366      
    2271.000 223.85793470     9.37854885       2.49656691      
    2271.500 219.32151010     9.37702263       2.50216587      
    2272.000 207.85562842     9.36923126       2.55176143      
    2272.500 195.83289728     9.36993358       2.59505079      
    2273.000 179.52097092     9.36983231       2.59153666      
    2273.500 168.56547594     9.36917204       2.64476210      
    2274.000 164.00963334     9.35416367       2.64730793      
    2274.500 157.75463121     9.37542298       2.65662234      
