~Version Information Block
 VERS.                2.00:     CWLS LOG ASCII STANDARD - VERSION 2.000000
 WRAP.                  NO:     One Line Per Depth Step
#
~Well Information Block
#MNEM.UNIT                     Data                         Information
#----------   ------------------------------------------   ----------------
 STRT.FT                                      150.0000:     START DEPTH
 STOP.FT                                     5250.0000:     STOP DEPTH
 STEP.FT                                        0.5000:     STEP
 NULL.                                       -999.2500:     NULL VALUE
 COMP.           BELDEN & BLAKE & CO LMTD. PARTN. #10A:     COMPANY
 WELL.                                      HICKORY #4:     WELL
 FLD .                                        MAGNOLIA:     FIELD
 LOC .             500'FSL & 500' FWL INSE/Q ON SEC 34:     LOCATION
 LAT .                                    40.611212268:     LATITUDE
 LONG.                                  -81.3085905865:     LONGITUDE
 GDAT.                                           NAD83:     GeoDetic Datum
 TWP .                                            ROSE:     TOWNSHIP
 CNTY.                                         CARROLL:     COUNTY
 STAT.                                              OH:     STATE
 CTRY.                                             USA:     COUNTRY
 SRVC.                                    SCHLUMBERGER:     SERVICE COMPANY
 DATE.                                       8/12/1969:     DATE
 API .                                  34019204780000:     API NUMBER
 UWI .                                  34019204780000:     UWI NUMBER
 TLD .                                            5250:     TOTAL LOG DEPTH
 RDAT.                                              KB:     REFERENCE Datum
 EPD .FT                                          1136:     Elevation Of REF. Datum
 FILE.NM     3401920478_GR-FDC_SCH_120_5227_Y_106_TH45:     FILE NAME
 WSTA.                                             LOC:     Well status
#
~Curve Information Block
#MNEM.UNIT       API CODE      Curve Description
#----------    -------------   -------------------
 DEPT.FT                   :   Depth in Feet
 GR  .         35 310 01 01:   Gamma Ray
 CALI.IN       70 280 01 01:   Caliper
 RHOB.G/C3     42 350 01 01:   Bulk Density
#
~Parameter Information Block
#MNEM.UNIT            Value               Description
#----------    --------------------    -------------------
 RUN .                         ONE:    Run Number
 PDAT.                            :    Permanent Datum
 EPD .FT                    0.0000:    Elevation Of Perm. Datum
 WSTA.                         LOC:    
 E   .FT                    0.0000:    E (Stretch Coefficient Of The Cable)
 TD  .FT                 5250.0000:    Total Depth
#
~Other Information Block
<DescLogPlotStart>   NEURALOG PLOT DEFINITION
PLOTDEFVERSION: 3
LASFILE: S:\Images\GeoPhysRasterLogs\Holding\LAS FILES\3401920478_GR-FDC_SCH_12
DEPTHSCALE: 240.000000
RESOLUTION: 200
DEPTHLABELFREQ: 100.000000
HEAVYGRIDFREQ: 100.000000
MEDIUMGRIDFREQ: 50.000000
LIGHTGRIDFREQ: 10.000000
#
#   TRACK 1
#
STARTTRACK: 
 LEFTX: 0.500000 inch
 RIGHTX: 3.000000 inch
 SCALETYPE: Linear
 NUMCHARTDIVISIONS: 10
CURVE: CALI  6.000000   16.000000  (0,131,131)    Dot               2     N    
CURVE: GR    0.000000   200.000000 (0,0,255)      Solid             2     N    
ENDTRACK: 
#
#   TRACK 2
#
STARTTRACK: 
 LEFTX: 3.500000 inch
 RIGHTX: 8.500000 inch
 SCALETYPE: Linear
 NUMCHARTDIVISIONS: 10
CURVE: RHOB  2.000000   3.000000   (255,0,255)    Solid             2     Y    
BACKUP: 1.000000   2.000000   (255,0,255)    Solid             2    
ENDTRACK: 
<DescLogPlotEnd>
~A DEPTH     GR               CALI             RHOB            
# ...
    5212.500 157.35124427     8.92947465       2.71376567      
    5213.000 158.58443243     8.92594369       2.71960134      
    5213.500 159.62809579     8.92241274       2.72338181      
    5214.000 161.01125295     8.91888178       2.71893877      
    5214.500 158.90037495     8.91535083       2.71552840      
    5215.000 155.02122215     8.91181987       2.70695059      
    5215.500 156.99650244     8.90828891       2.69722596      
    5216.000 160.59317092     8.90475796       2.68738088      
    5216.500 159.23271030     8.90122700       2.68238167      
    5217.000 158.12940679     8.89769604       2.68597821      
    5217.500 158.43474740     8.89416509       2.69652731      
    5218.000 159.76145116     8.89063413       2.72271599      
    5218.500 157.30858120     8.88710317       2.73604336      
    5219.000 155.37343015     8.88357222       2.74139413      
    5219.500 158.66798294     8.88004126       2.73863930      
    5220.000 157.58769850     8.87651031       2.73102469      
    5220.500 159.34042684     8.87297935       2.71789807      
    5221.000 158.53538090     8.86944839       2.69888393      
    5221.500 157.34467197     8.86591744       2.69337236      
    5222.000 157.65911883     8.86238648       2.69626446      
    5222.500 158.29061256     8.85885552       2.70534435      
    5223.000 158.84007484     8.85532457       2.70608993      
    5223.500 158.06058719     8.85179361       2.70335029      
    5224.000 157.21086023     8.84826265       2.70240880      
    5224.500 159.03357853     8.84473170       2.70941427      
    5225.000 158.46641637     8.84120074       2.71149659      
    5225.500 155.23112035     8.83766936       2.70965066      
    5226.000 152.92204564     8.83413244       2.70926160      
    5226.500 155.93030303     8.83059211       2.71576735      
    5227.000 158.95357046     8.82740520       2.72111424      
    5227.500 158.19101878     8.82737422       2.71826999      
    5228.000 155.42640785     8.82689312       2.71759733      
    5228.500 153.20739006     8.82622243       2.71329019      
    5229.000 150.83903702     8.82554530       2.71239255      
    5229.500 130.31542644     8.82486905       2.71050878      
    5230.000 42.68518519      8.82419312       2.71474799      
    5230.500 1.78571429       8.82351720       2.73120483      
    5231.000 1.78571429       8.82284127       2.73799652      
    5231.500 1.78891169       8.82216534       2.74064818      
    5232.000 1.78446041       8.82148942       2.74117263      
    5232.500 1.79302490       8.82081349       2.74449059      
    5233.000 1.75592224       8.82013757       2.73435409      
    5233.500 2.17028345       8.81946164       2.72092032      
    5234.000 2.19479592       8.81878571       2.71181869      
    5234.500 2.60915712       8.81810979       2.71107730      
    5235.000 2.58496717       8.81743386       2.71843806      
    5235.500 2.57851890       8.81675794       2.72294352      
    5236.000 2.57936508       8.81608201       2.70731032      
    5236.500 2.57936508       8.81540608       2.70385869      
    5237.000 2.57936508       8.81473016       2.69961148      
    5237.500 2.57936508       8.81405423       2.69705551      
    5238.000 2.57936508       8.81337831       2.70117376      
    5238.500 2.57936508       8.81270238       2.71872686      
    5239.000 2.57936508       8.81202646       2.72824500      
    5239.500 2.58021125       8.81135053       2.72998903      
    5240.000 2.57277004       8.81067460       2.72170298      
    5240.500 2.54700898       8.80999868       2.71939937      
    5241.000 2.95573526       8.80927258       2.71730381      
    5241.500 3.58849312       8.80875055       2.72327202      
    5242.000 5.55516421       8.80869414       2.71537416      
    5242.500 8.13498809       8.82881499       2.70576206      
    5243.000 25.59523304      8.82766181       2.69704519      
    5243.500 82.89758099      8.82733812       2.68958887      
    5244.000 147.91227594     8.82738095       2.68941187      
    5244.500 158.89156002     8.82738095       2.68941617      
    5245.000 153.69119682     8.82738095       2.68943170      
    5245.500 154.68232572     8.82738095       2.68943170      
    5246.000 156.94539044     8.82738095       2.68943170      
    5246.500 153.35285795     8.82738095       2.68943170      
    5247.000 153.37143759     8.82738095       2.68943170      
    5247.500 153.36925164     8.82738095       2.68943170      
    5248.000 153.37301587     8.82738095       2.68943170      
    5248.500 153.37301587     8.82738095       2.68943170      
    5249.000 153.37301587     8.82738095       2.68943170      
    5249.500 153.37301587     8.82738095       2.68943170      
    5250.000 153.37301587     8.82738095       2.68943170      
