~Version Information Block
 VERS.                2.00:     CWLS LOG ASCII STANDARD - VERSION 2.000000
 WRAP.                  NO:     One Line Per Depth Step
#
~Well Information Block
#MNEM.UNIT                     Data                         Information
#----------   ------------------------------------------   ----------------
 STRT.FT                                      150.0000:     START DEPTH
 STOP.FT                                     5250.0000:     STOP DEPTH
 STEP.FT                                        0.5000:     STEP
 NULL.                                       -999.2500:     NULL VALUE
 COMP.           BELDEN & BLAKE & CO LMTD. PARTN. #10A:     COMPANY
 WELL.                                      HICKORY #4:     WELL
 FLD .                                        MAGNOLIA:     FIELD
 LOC .             500'FSL & 500' FWL INSE/Q ON SEC 34:     LOCATION
 LAT .                                    40.611212268:     LATITUDE
 LONG.                                  -81.3085905865:     LONGITUDE
 GDAT.                                           NAD83:     GeoDetic Datum
 TWP .                                            ROSE:     TOWNSHIP
 CNTY.                                         CARROLL:     COUNTY
 STAT.                                              OH:     STATE
 CTRY.                                             USA:     COUNTRY
 SRVC.                                    SCHLUMBERGER:     SERVICE COMPANY
 DATE.                                       8/12/1969:     DATE
 API .                                  34019204780000:     API NUMBER
 UWI .                                  34019204780000:     UWI NUMBER
 TLD .                                            5250:     TOTAL LOG DEPTH
 RDAT.                                              KB:     REFERENCE Datum
 EPD .FT                                          1136:     Elevation Of REF. Datum
 FILE.NM     3401920478_GR-FDC_SCH_120_5227_Y_106_TH45:     FILE NAME
 WSTA.                                             LOC:     Well status
#
~Curve Information Block
#MNEM.UNIT       API CODE      Curve Description
#----------    -------------   -------------------
 DEPT.FT                   :   Depth in Feet
 GR  .         35 310 01 01:   Gamma Ray
 CALI.IN       70 280 01 01:   Caliper
 RHOB.G/C3     42 350 01 01:   Bulk Density
#
~Parameter Information Block
#MNEM.UNIT            Value               Description
#----------    --------------------    -------------------
 RUN .                         ONE:    Run Number
 PDAT.                            :    Permanent Datum
 EPD .FT                    0.0000:    Elevation Of Perm. Datum
 WSTA.                         LOC:    
 E   .FT                    0.0000:    E (Stretch Coefficient Of The Cable)
 TD  .FT                 5250.0000:    Total Depth
#
~Other Information Block
<DescLogPlotStart>   NEURALOG PLOT DEFINITION
PLOTDEFVERSION: 3
LASFILE: S:\Images\GeoPhysRasterLogs\Holding\LAS FILES\3401920478_GR-FDC_SCH_12
DEPTHSCALE: 240.000000
RESOLUTION: 200
DEPTHLABELFREQ: 100.000000
HEAVYGRIDFREQ: 100.000000
MEDIUMGRIDFREQ: 50.000000
LIGHTGRIDFREQ: 10.000000
#
#   TRACK 1
#
STARTTRACK: 
 LEFTX: 0.500000 inch
 RIGHTX: 3.000000 inch
 SCALETYPE: Linear
 NUMCHARTDIVISIONS: 10
CURVE: CALI  6.000000   16.000000  (0,131,131)    Dot               2     N    
CURVE: GR    0.000000   200.000000 (0,0,255)      Solid             2     N    
ENDTRACK: 
#
#   TRACK 2
#
STARTTRACK: 
 LEFTX: 3.500000 inch
 RIGHTX: 8.500000 inch
 SCALETYPE: Linear
 NUMCHARTDIVISIONS: 10
CURVE: RHOB  2.000000   3.000000   (255,0,255)    Solid             2     Y    
BACKUP: 1.000000   2.000000   (255,0,255)    Solid             2    
ENDTRACK: 
<DescLogPlotEnd>
~A DEPTH     GR               CALI             RHOB            
# ...
    1900.000 150.41302112     9.31016486       2.66391821      
    1900.500 152.55746085     9.32227510       2.65385761      
    1901.000 150.98555853     9.32970929       2.64723958      
    1901.500 147.16811265     9.33007881       2.63828321      
    1902.000 143.29625029     9.33051900       2.63459575      
    1902.500 139.51226020     9.32933800       2.65765049      
    1903.000 138.31049330     9.31312364       2.66534287      
    1903.500 136.48604446     9.32881718       2.67892555      
    1904.000 134.13258930     9.32927228       2.69249886      
    1904.500 136.10593378     9.32437142       2.69291593      
    1905.000 138.75304957     9.33015143       2.68549856      
    1905.500 139.39247883     9.32398344       2.67417669      
    1906.000 138.97890045     9.33172092       2.66283794      
    1906.500 139.25129243     9.32965367       2.67064749      
    1907.000 140.27279045     9.32992883       2.66698756      
    1907.500 139.00717297     9.32918669       2.66059231      
    1908.000 137.63775663     9.31174900       2.65685221      
    1908.500 136.21186093     9.33035219       2.65985168      
    1909.000 135.10713969     9.32783177       2.67254054      
    1909.500 132.98709962     9.33324014       2.67420851      
    1910.000 132.33106888     9.30912794       2.67492753      
    1910.500 134.22035871     9.30886424       2.67426766      
    1911.000 138.85401462     9.30634538       2.67338571      
    1911.500 142.16688147     9.30786436       2.67949355      
    1912.000 141.73663815     9.30982126       2.67601679      
    1912.500 138.82056395     9.31008076       2.67642122      
    1913.000 135.80437985     9.30998539       2.68302025      
    1913.500 134.46652343     9.31017318       2.68530558      
    1914.000 132.94138783     9.31014471       2.69172246      
    1914.500 131.88022021     9.31415229       2.69465284      
    1915.000 134.97422551     9.30988421       2.69687240      
    1915.500 138.69117358     9.30992018       2.68020533      
    1916.000 139.41291687     9.31000000       2.67755967      
    1916.500 139.62427144     9.31000000       2.68447064      
    1917.000 140.22645486     9.31000000       2.69450386      
    1917.500 142.71999971     9.31000000       2.69471193      
    1918.000 142.92923719     9.30995719       2.69813091      
    1918.500 144.61090727     9.31020506       2.70898542      
    1919.000 146.77180460     9.31093186       2.70857469      
    1919.500 145.67340594     9.32391916       2.71054397      
    1920.000 141.92741784     9.31050878       2.70732094      
    1920.500 138.70160568     9.30982359       2.69857677      
    1921.000 136.66947158     9.30954864       2.68779407      
    1921.500 136.89815750     9.34835740       2.67767951      
    1922.000 136.49572737     9.34754958       2.68219757      
    1922.500 136.16891684     9.33063644       2.69317589      
    1923.000 135.51173594     9.33614008       2.70644402      
    1923.500 134.28288623     9.33058400       2.70655525      
    1924.000 134.70679156     9.32995209       2.69654534      
    1924.500 135.34487767     9.32997504       2.68404109      
    1925.000 134.50681934     9.32995794       2.68497084      
    1925.500 133.14514008     9.33006138       2.69218996      
    1926.000 131.73398571     9.33525867       2.68797902      
    1926.500 130.69069732     9.33779330       2.68125993      
    1927.000 130.98211208     9.33933096       2.67300648      
    1927.500 132.48317823     9.34062048       2.65924836      
    1928.000 133.33009388     9.35219129       2.66597335      
    1928.500 133.99527029     9.34914975       2.66963433      
    1929.000 138.00104154     9.33197192       2.67741187      
    1929.500 138.95852441     9.32962123       2.69186331      
    1930.000 137.13123819     9.32997617       2.70369879      
    1930.500 135.73466857     9.32994996       2.71984084      
    1931.000 136.23027305     9.33014674       2.71908317      
    1931.500 135.73548942     9.33072773       2.71948657      
    1932.000 133.33416754     9.35081971       2.71449011      
    1932.500 129.45509822     9.33146864       2.70513964      
    1933.000 124.47555863     9.32960145       2.69890667      
    1933.500 122.88699074     9.32990320       2.69356869      
    1934.000 127.39976748     9.33010221       2.69690380      
    1934.500 132.09312250     9.33373344       2.70045552      
    1935.000 135.17988895     9.34849302       2.69786694      
    1935.500 136.71378251     9.34950711       2.69284001      
    1936.000 138.80795667     9.33024029       2.68086361      
    1936.500 138.30193230     9.33296948       2.66591506      
    1937.000 135.54471836     9.33969904       2.65633835      
    1937.500 134.96642932     9.33804647       2.65735622      
    1938.000 136.30881957     9.34933012       2.66678256      
    1938.500 140.15584381     9.35006067       2.67282659      
    1939.000 139.64123061     9.34999959       2.67765631      
    1939.500 139.62049070     9.35130052       2.67829675      
    1940.000 140.64806320     9.32953084       2.66918917      
    1940.500 141.29149848     9.33041891       2.65749170      
    1941.000 140.97977707     9.33047271       2.66023274      
    1941.500 140.39603519     9.33925083       2.66405271      
    1942.000 138.60606969     9.33207593       2.67520057      
    1942.500 138.61361324     9.33106311       2.68594640      
    1943.000 139.44559218     9.34808324       2.69024326      
    1943.500 138.96506516     9.34438716       2.68343598      
    1944.000 139.35561307     9.32804379       2.69634821      
    1944.500 141.00296296     9.33087436       2.70829297      
    1945.000 141.95645498     9.34418627       2.70631085      
    1945.500 140.86210162     9.33440474       2.70013262      
    1946.000 140.00677544     9.33100174       2.69580219      
    1946.500 141.10805169     9.35039268       2.69418566      
    1947.000 138.67669689     9.34969450       2.69167325      
    1947.500 139.41473023     9.35047317       2.69209045      
    1948.000 140.91279877     9.34377801       2.69746076      
    1948.500 140.21236645     9.35041003       2.70399821      
    1949.000 139.31245252     9.35018757       2.70270855      
    1949.500 137.93658847     9.34690690       2.70439860      
    1950.000 137.72396357     9.34618367       2.69920538      
    1950.500 136.94612834     9.33785494       2.68669222      
    1951.000 139.18352643     9.35153577       2.67997392      
    1951.500 138.95367216     9.35064649       2.67443748      
    1952.000 134.74606805     9.35008263       2.67141874      
    1952.500 131.77032485     9.34330044       2.67151856      
    1953.000 128.87008310     9.35148541       2.67225839      
    1953.500 128.35161683     9.34367626       2.68282299      
    1954.000 130.79277753     9.35071240       2.69377912      
    1954.500 132.05983697     9.35002862       2.69828397      
    1955.000 130.32809167     9.34987410       2.70084835      
    1955.500 125.03727198     9.35204656       2.68723843      
    1956.000 121.18085238     9.35042588       2.66975269      
    1956.500 120.53929413     9.34420377       2.65924803      
    1957.000 122.61095613     9.34973807       2.66703430      
    1957.500 127.52935597     9.34973681       2.68436270      
    1958.000 133.55772226     9.35002221       2.69209928      
    1958.500 137.19976162     9.35000000       2.68447796      
    1959.000 138.97975021     9.35000000       2.69092093      
    1959.500 140.60340818     9.35000000       2.69691719      
    1960.000 141.91361598     9.35000000       2.69340236      
    1960.500 141.08331948     9.35000000       2.69530860      
    1961.000 140.53003111     9.35000000       2.70119654      
    1961.500 138.79740809     9.35000000       2.69377262      
    1962.000 136.84310943     9.35000000       2.68598593      
