~Version Information Block
 VERS.                2.00:     CWLS LOG ASCII STANDARD - VERSION 2.000000
 WRAP.                  NO:     One Line Per Depth Step
#
~Well Information Block
#MNEM.UNIT                     Data                         Information
#----------   ------------------------------------------   ----------------
 STRT.FT                                      150.0000:     START DEPTH
 STOP.FT                                     5250.0000:     STOP DEPTH
 STEP.FT                                        0.5000:     STEP
 NULL.                                       -999.2500:     NULL VALUE
 COMP.           BELDEN & BLAKE & CO LMTD. PARTN. #10A:     COMPANY
 WELL.                                      HICKORY #4:     WELL
 FLD .                                        MAGNOLIA:     FIELD
 LOC .             500'FSL & 500' FWL INSE/Q ON SEC 34:     LOCATION
 LAT .                                    40.611212268:     LATITUDE
 LONG.                                  -81.3085905865:     LONGITUDE
 GDAT.                                           NAD83:     GeoDetic Datum
 TWP .                                            ROSE:     TOWNSHIP
 CNTY.                                         CARROLL:     COUNTY
 STAT.                                              OH:     STATE
 CTRY.                                             USA:     COUNTRY
 SRVC.                                    SCHLUMBERGER:     SERVICE COMPANY
 DATE.                                       8/12/1969:     DATE
 API .                                  34019204780000:     API NUMBER
 UWI .                                  34019204780000:     UWI NUMBER
 TLD .                                            5250:     TOTAL LOG DEPTH
 RDAT.                                              KB:     REFERENCE Datum
 EPD .FT                                          1136:     Elevation Of REF. Datum
 FILE.NM     3401920478_GR-FDC_SCH_120_5227_Y_106_TH45:     FILE NAME
 WSTA.                                             LOC:     Well status
#
~Curve Information Block
#MNEM.UNIT       API CODE      Curve Description
#----------    -------------   -------------------
 DEPT.FT                   :   Depth in Feet
 GR  .         35 310 01 01:   Gamma Ray
 CALI.IN       70 280 01 01:   Caliper
 RHOB.G/C3     42 350 01 01:   Bulk Density
#
~Parameter Information Block
#MNEM.UNIT            Value               Description
#----------    --------------------    -------------------
 RUN .                         ONE:    Run Number
 PDAT.                            :    Permanent Datum
 EPD .FT                    0.0000:    Elevation Of Perm. Datum
 WSTA.                         LOC:    
 E   .FT                    0.0000:    E (Stretch Coefficient Of The Cable)
 TD  .FT                 5250.0000:    Total Depth
#
~Other Information Block
<DescLogPlotStart>   NEURALOG PLOT DEFINITION
PLOTDEFVERSION: 3
LASFILE: S:\Images\GeoPhysRasterLogs\Holding\LAS FILES\3401920478_GR-FDC_SCH_12
DEPTHSCALE: 240.000000
RESOLUTION: 200
DEPTHLABELFREQ: 100.000000
HEAVYGRIDFREQ: 100.000000
MEDIUMGRIDFREQ: 50.000000
LIGHTGRIDFREQ: 10.000000
#
#   TRACK 1
#
STARTTRACK: 
 LEFTX: 0.500000 inch
 RIGHTX: 3.000000 inch
 SCALETYPE: Linear
 NUMCHARTDIVISIONS: 10
CURVE: CALI  6.000000   16.000000  (0,131,131)    Dot               2     N    
CURVE: GR    0.000000   200.000000 (0,0,255)      Solid             2     N    
ENDTRACK: 
#
#   TRACK 2
#
STARTTRACK: 
 LEFTX: 3.500000 inch
 RIGHTX: 8.500000 inch
 SCALETYPE: Linear
 NUMCHARTDIVISIONS: 10
CURVE: RHOB  2.000000   3.000000   (255,0,255)    Solid             2     Y    
BACKUP: 1.000000   2.000000   (255,0,255)    Solid             2    
ENDTRACK: 
<DescLogPlotEnd>
~A DEPTH     GR               CALI             RHOB            
# ...
    1337.500 121.03681510     9.35321151       2.64787383      
    1338.000 121.09086054     9.33878680       2.63288271      
    1338.500 122.34345584     9.35494562       2.61958907      
    1339.000 121.27689360     9.36952218       2.62029381      
    1339.500 119.61664302     9.37029663       2.63014744      
    1340.000 119.89429575     9.37016180       2.63164479      
    1340.500 124.57834375     9.36420377       2.63233284      
    1341.000 129.75484215     9.37003000       2.63483760      
    1341.500 132.38147378     9.37174137       2.62672134      
    1342.000 131.43559137     9.37058650       2.62362684      
    1342.500 129.68801420     9.36388877       2.63976423      
    1343.000 130.12099684     9.37170533       2.65157589      
    1343.500 131.96566261     9.36957414       2.65911138      
    1344.000 134.34302872     9.36988489       2.66972049      
    1344.500 134.28733294     9.37143108       2.67466713      
    1345.000 135.61359928     9.36485218       2.66851619      
    1345.500 138.36689728     9.37134328       2.66451155      
    1346.000 138.98834704     9.35519422       2.67132325      
    1346.500 138.77135051     9.37037978       2.67322766      
    1347.000 136.57319966     9.37022081       2.66605086      
    1347.500 135.09233646     9.37157389       2.66395807      
    1348.000 134.81432865     9.35515030       2.65623888      
    1348.500 134.30507943     9.35568138       2.65348693      
    1349.000 134.47920350     9.36967417       2.65207356      
    1349.500 135.59504991     9.34874631       2.65639678      
    1350.000 135.97062831     9.35472299       2.66563736      
    1350.500 137.51245835     9.36952974       2.67757818      
    1351.000 138.66052016     9.35516510       2.68136351      
    1351.500 136.97678203     9.36638872       2.67108240      
    1352.000 133.94747737     9.35028628       2.66763661      
    1352.500 131.10275972     9.37169726       2.65357404      
    1353.000 129.77094897     9.37018233       2.64471305      
    1353.500 129.88756766     9.37166078       2.63995120      
    1354.000 129.84383169     9.36602104       2.63413018      
    1354.500 129.46698595     9.36557146       2.62953741      
    1355.000 130.46861716     9.36994826       2.62861371      
    1355.500 131.80193572     9.35489328       2.63040682      
    1356.000 133.50333702     9.34894956       2.63509804      
    1356.500 132.80735462     9.35401825       2.65183109      
    1357.000 129.74967882     9.34883591       2.66233589      
    1357.500 127.86434017     9.35945326       2.64737039      
    1358.000 129.79209675     9.33566867       2.64476171      
    1358.500 133.63655299     9.34964738       2.64560031      
    1359.000 136.90029517     9.35000280       2.64291932      
    1359.500 140.13106020     9.35028304       2.63723701      
    1360.000 141.22910594     9.35021928       2.62671385      
    1360.500 139.14975290     9.35599992       2.62165522      
    1361.000 133.33977925     9.35055336       2.63055400      
    1361.500 130.95064631     9.33349685       2.64262118      
    1362.000 129.98845393     9.35020915       2.64134211      
    1362.500 128.93100658     9.35529886       2.64514725      
    1363.000 130.32918426     9.35050888       2.66077120      
    1363.500 130.93247982     9.34991004       2.67132486      
    1364.000 128.90557057     9.34986018       2.67420377      
    1364.500 124.54881831     9.35200391       2.68898618      
    1365.000 122.12877540     9.35070823       2.68967042      
    1365.500 124.73832327     9.34565524       2.67705375      
    1366.000 128.11564818     9.33046177       2.66665763      
    1366.500 133.92496066     9.32982694       2.66053337      
    1367.000 141.09431982     9.32999122       2.65005907      
    1367.500 141.44394300     9.32986472       2.64588927      
    1368.000 138.82764991     9.34194143       2.63747996      
    1368.500 133.52620286     9.35009531       2.62658886      
    1369.000 130.03016482     9.35194022       2.62011708      
    1369.500 127.50431523     9.34989137       2.61015023      
    1370.000 127.01973222     9.35009283       2.61145353      
    1370.500 127.28669652     9.34989555       2.61786411      
    1371.000 129.49434470     9.34321013       2.61899192      
    1371.500 130.25299728     9.34484231       2.62004378      
    1372.000 129.82380935     9.33832181       2.62099071      
    1372.500 130.61734429     9.34370249       2.62571883      
    1373.000 131.92287540     9.33581756       2.62191968      
    1373.500 130.98561362     9.33802740       2.62085334      
    1374.000 129.65690206     9.34378903       2.61486111      
    1374.500 129.75692519     9.34624549       2.60943446      
    1375.000 132.11835468     9.33078564       2.59885181      
    1375.500 132.41128629     9.32993937       2.59486707      
    1376.000 130.29668479     9.32973443       2.60285349      
    1376.500 128.54866478     9.31926827       2.61013363      
    1377.000 129.72395105     9.32936638       2.62207483      
    1377.500 131.69351767     9.32977059       2.63176064      
    1378.000 134.67517919     9.33003418       2.64182001      
    1378.500 136.53386861     9.33000000       2.65002595      
    1379.000 135.96372753     9.33000000       2.65522089      
    1379.500 133.23603802     9.33004201       2.65675627      
    1380.000 131.87989663     9.32948577       2.65956525      
    1380.500 133.10410305     9.32973281       2.67151101      
    1381.000 135.52391521     9.32810982       2.68159575      
    1381.500 138.58845770     9.33012371       2.68603736      
    1382.000 140.10577624     9.33754223       2.66843912      
    1382.500 142.13765894     9.33235418       2.64205060      
    1383.000 142.19845332     9.33912335       2.62177828      
    1383.500 142.18154775     9.33788431       2.62049931      
    1384.000 144.04505644     9.33157224       2.63029605      
    1384.500 148.12398541     9.34658442       2.64090718      
    1385.000 149.05326497     9.33115417       2.65270933      
    1385.500 147.80560073     9.33013460       2.65716425      
    1386.000 146.31528650     9.33008455       2.65735180      
    1386.500 145.39192883     9.33136665       2.64842791      
    1387.000 144.64670741     9.34777449       2.64407845      
    1387.500 142.51157580     9.34737860       2.63823065      
    1388.000 142.52633741     9.33059788       2.62294283      
    1388.500 140.08624172     9.33040410       2.61766952      
    1389.000 138.57530457     9.32742709       2.61669495      
    1389.500 134.92243732     9.33105345       2.61987376      
    1390.000 130.68928699     9.31197640       2.61980287      
    1390.500 127.27976497     9.33110912       2.62697708      
    1391.000 125.07936170     9.33003507       2.62636113      
    1391.500 122.13972849     9.33142509       2.62562046      
    1392.000 122.92451770     9.30988401       2.61845492      
    1392.500 129.36206118     9.32512244       2.61372589      
    1393.000 134.61837152     9.32828670       2.62574368      
    1393.500 135.45653851     9.33153637       2.63018213      
    1394.000 138.87163625     9.32339466       2.63068439      
    1394.500 142.48990317     9.30829154       2.63632281      
    1395.000 146.94982486     9.33007323       2.64215614      
    1395.500 147.35583876     9.35077797       2.63370866      
    1396.000 146.95965788     9.33356328       2.64057075      
    1396.500 146.20791157     9.32954444       2.65302106      
    1397.000 142.59016203     9.32995264       2.65691333      
    1397.500 141.86862623     9.33004265       2.65565621      
    1398.000 142.97156935     9.32973394       2.65194469      
    1398.500 144.70783665     9.32841972       2.65451212      
    1399.000 146.51429762     9.34938605       2.64641152      
    1399.500 147.00206336     9.32705666       2.63310146      
