~Version Information Block
 VERS.                2.00:     CWLS LOG ASCII STANDARD - VERSION 2.000000
 WRAP.                  NO:     One Line Per Depth Step
#
~Well Information Block
#MNEM.UNIT                     Data                         Information
#----------   ------------------------------------------   ----------------
 STRT.FT                                      150.0000:     START DEPTH
 STOP.FT                                     5250.0000:     STOP DEPTH
 STEP.FT                                        0.5000:     STEP
 NULL.                                       -999.2500:     NULL VALUE
 COMP.           BELDEN & BLAKE & CO LMTD. PARTN. #10A:     COMPANY
 WELL.                                      HICKORY #4:     WELL
 FLD .                                        MAGNOLIA:     FIELD
 LOC .             500'FSL & 500' FWL INSE/Q ON SEC 34:     LOCATION
 LAT .                                    40.611212268:     LATITUDE
 LONG.                                  -81.3085905865:     LONGITUDE
 GDAT.                                           NAD83:     GeoDetic Datum
 TWP .                                            ROSE:     TOWNSHIP
 CNTY.                                         CARROLL:     COUNTY
 STAT.                                              OH:     STATE
 CTRY.                                             USA:     COUNTRY
 SRVC.                                    SCHLUMBERGER:     SERVICE COMPANY
 DATE.                                       8/12/1969:     DATE
 API .                                  34019204780000:     API NUMBER
 UWI .                                  34019204780000:     UWI NUMBER
 TLD .                                            5250:     TOTAL LOG DEPTH
 RDAT.                                              KB:     REFERENCE Datum
 EPD .FT                                          1136:     Elevation Of REF. Datum
 FILE.NM     3401920478_GR-FDC_SCH_120_5227_Y_106_TH45:     FILE NAME
 WSTA.                                             LOC:     Well status
#
~Curve Information Block
#MNEM.UNIT       API CODE      Curve Description
#----------    -------------   -------------------
 DEPT.FT                   :   Depth in Feet
 GR  .         35 310 01 01:   Gamma Ray
 CALI.IN       70 280 01 01:   Caliper
 RHOB.G/C3     42 350 01 01:   Bulk Density
#
~Parameter Information Block
#MNEM.UNIT            Value               Description
#----------    --------------------    -------------------
 RUN .                         ONE:    Run Number
 PDAT.                            :    Permanent Datum
 EPD .FT                    0.0000:    Elevation Of Perm. Datum
 WSTA.                         LOC:    
 E   .FT                    0.0000:    E (Stretch Coefficient Of The Cable)
 TD  .FT                 5250.0000:    Total Depth
#
~Other Information Block
<DescLogPlotStart>   NEURALOG PLOT DEFINITION
PLOTDEFVERSION: 3
LASFILE: S:\Images\GeoPhysRasterLogs\Holding\LAS FILES\3401920478_GR-FDC_SCH_12
DEPTHSCALE: 240.000000
RESOLUTION: 200
DEPTHLABELFREQ: 100.000000
HEAVYGRIDFREQ: 100.000000
MEDIUMGRIDFREQ: 50.000000
LIGHTGRIDFREQ: 10.000000
#
#   TRACK 1
#
STARTTRACK: 
 LEFTX: 0.500000 inch
 RIGHTX: 3.000000 inch
 SCALETYPE: Linear
 NUMCHARTDIVISIONS: 10
CURVE: CALI  6.000000   16.000000  (0,131,131)    Dot               2     N    
CURVE: GR    0.000000   200.000000 (0,0,255)      Solid             2     N    
ENDTRACK: 
#
#   TRACK 2
#
STARTTRACK: 
 LEFTX: 3.500000 inch
 RIGHTX: 8.500000 inch
 SCALETYPE: Linear
 NUMCHARTDIVISIONS: 10
CURVE: RHOB  2.000000   3.000000   (255,0,255)    Solid             2     Y    
BACKUP: 1.000000   2.000000   (255,0,255)    Solid             2    
ENDTRACK: 
<DescLogPlotEnd>
~A DEPTH     GR               CALI             RHOB            
# ...
    1087.500 79.72549035      7.13457627       -999.25000000   
    1088.000 77.61904920      7.45550508       -999.25000000   
    1088.500 76.27568278      7.77643390       -999.25000000   
    1089.000 76.61516567      8.09736271       -999.25000000   
    1089.500 77.37082274      8.41829153       -999.25000000   
    1090.000 76.58492651      8.73922034       -999.25000000   
    1090.500 75.19770396      9.06039740       -999.25000000   
    1091.000 72.69786084      9.38086596       -999.25000000   
    1091.500 76.83019532      9.70412165       -999.25000000   
    1092.000 76.50403511      9.82731726       -999.25000000   
    1092.500 75.47661990      9.82811052       -999.25000000   
    1093.000 75.81719562      9.82631574       -999.25000000   
    1093.500 76.12119909      9.82455300       -999.25000000   
    1094.000 75.83834549      9.82304044       -999.25000000   
    1094.500 75.39741232      9.82152788       -999.25000000   
    1095.000 75.00028854      9.82001532       -999.25000000   
    1095.500 74.96925608      9.81850276       -999.25000000   
    1096.000 75.39586747      9.81699020       -999.25000000   
    1096.500 76.06783467      9.81547764       -999.25000000   
    1097.000 76.87117735      9.81396508       -999.25000000   
    1097.500 77.45567243      9.81245252       -999.25000000   
    1098.000 78.10488723      9.81093996       -999.25000000   
    1098.500 78.49952537      9.80942740       -999.25000000   
    1099.000 77.08786304      9.80791484       -999.25000000   
    1099.500 76.48661098      9.80640228       -999.25000000   
    1100.000 79.06501001      9.80488972       -999.25000000   
    1100.500 81.81175699      9.80337716       -999.25000000   
    1101.000 84.23379206      9.80186460       -999.25000000   
    1101.500 84.37432239      9.80035204       -999.25000000   
    1102.000 81.79949070      9.79883948       -999.25000000   
    1102.500 78.10010679      9.79732692       -999.25000000   
    1103.000 77.54291677      9.79581436       -999.25000000   
    1103.500 81.41666552      9.79420854       -999.25000000   
    1104.000 88.43820784      9.79177423       -999.25000000   
    1104.500 95.91905560      9.79006996       2.63858425      
    1105.000 102.95782609     9.85237969       2.63060818      
    1105.500 104.29201905     10.28444190      2.58673978      
    1106.000 103.61108604     10.71751733      2.57098001      
    1106.500 105.24119209     11.16327043      2.54367821      
    1107.000 108.25733586     10.38440802      2.57221323      
    1107.500 112.46158807     9.50781650       2.62378411      
    1108.000 114.28182156     9.46657754       2.63100979      
    1108.500 116.26433191     9.46952864       2.63486905      
    1109.000 116.92928931     9.46893311       2.62916864      
    1109.500 116.69992178     9.47539090       2.63058633      
    1110.000 115.52306736     9.41803437       2.62090709      
    1110.500 116.90837272     9.47135394       2.61132570      
    1111.000 119.50495097     9.46994307       2.60666197      
    1111.500 121.14884169     9.47017066       2.61319507      
    1112.000 121.63594926     9.46955956       2.61744568      
    1112.500 123.07718574     9.45588087       2.61981535      
    1113.000 121.98347323     9.47236368       2.61371079      
    1113.500 119.86111212     9.45118408       2.61803602      
    1114.000 121.31159775     9.43790983       2.62767502      
    1114.500 124.00292443     9.45153488       2.63372981      
    1115.000 126.91461535     9.45027739       2.63956746      
    1115.500 127.00944451     9.45016490       2.65494103      
    1116.000 125.84585738     9.43514023       2.65871391      
    1116.500 122.96780133     9.43171434       2.64275080      
    1117.000 120.44235302     9.41697894       2.62696319      
    1117.500 116.73678117     9.40992255       2.62388053      
    1118.000 115.69556235     9.40982865       2.63025840      
    1118.500 115.51393832     9.41000000       2.64168094      
    1119.000 114.18923875     9.41000000       2.64217391      
    1119.500 112.06969614     9.41000000       2.63725020      
    1120.000 116.35770991     9.41000000       2.64221389      
    1120.500 122.24957085     9.41000000       2.64545941      
    1121.000 121.82960167     9.41000000       2.63830959      
    1121.500 122.09463250     9.41000000       2.63822437      
    1122.000 123.66615599     9.41000000       2.63113352      
    1122.500 124.52206127     9.41000000       2.62393696      
    1123.000 126.42355143     9.41000000       2.62295379      
    1123.500 127.40045719     9.41000000       2.63040260      
    1124.000 127.90038309     9.41000000       2.62737524      
    1124.500 129.74706162     9.40992134       2.62368097      
    1125.000 132.76247478     9.40954169       2.61545871      
    1125.500 132.20274922     9.41485899       2.62063346      
    1126.000 127.33266816     9.42949623       2.62895837      
    1126.500 122.68507000     9.43015721       2.64004838      
    1127.000 122.11165097     9.43002784       2.66005469      
    1127.500 123.58961014     9.43000000       2.66888396      
    1128.000 125.07512075     9.43002784       2.66756044      
    1128.500 125.99979752     9.43015721       2.66869291      
    1129.000 126.97161213     9.42949623       2.66901645      
    1129.500 128.67980850     9.41485899       2.65598459      
    1130.000 127.34295049     9.40954233       2.64652597      
    1130.500 126.57146048     9.41015309       2.65534906      
    1131.000 125.81618992     9.40879699       2.67097078      
    1131.500 123.54677099     9.43119991       2.67034001      
    1132.000 122.19030079     9.42985834       2.67632387      
    1132.500 122.14110175     9.43070164       2.67050502      
    1133.000 123.29122788     9.43131094       2.65634803      
    1133.500 126.57142389     9.43191834       2.65136665      
    1134.000 129.06382615     9.43252544       2.65328069      
    1134.500 130.64469375     9.43313254       2.66048270      
    1135.000 131.83781231     9.43373964       2.67338456      
    1135.500 130.54614937     9.43434675       2.66148047      
    1136.000 128.15415472     9.43495385       2.65050561      
    1136.500 123.33407947     9.43556095       2.64660839      
    1137.000 118.35513425     9.43616805       2.64358322      
    1137.500 116.18333384     9.43677515       2.64455161      
    1138.000 117.79326269     9.43738225       2.64229358      
    1138.500 120.99384739     9.43798935       2.63491381      
    1139.000 122.97975867     9.43859645       2.64279624      
    1139.500 124.54667435     9.43920355       2.64726215      
    1140.000 124.67942633     9.43981065       2.64357413      
    1140.500 125.97153497     9.44041775       2.64282249      
    1141.000 125.34289150     9.44102485       2.64361807      
    1141.500 125.18966582     9.44163195       2.65020781      
    1142.000 123.57672578     9.44223905       2.65370350      
    1142.500 121.73934791     9.44284615       2.64764812      
    1143.000 121.88895765     9.44345325       2.63245811      
    1143.500 123.62987051     9.44406036       2.62906108      
    1144.000 125.58039833     9.44466746       2.61620806      
    1144.500 124.65274792     9.44527456       2.61188623      
    1145.000 122.40144716     9.44588166       2.62894630      
    1145.500 121.98282674     9.44648876       2.63214192      
    1146.000 121.61238638     9.44709586       2.64202716      
    1146.500 120.49933294     9.44770296       2.64311737      
    1147.000 119.68590000     9.44836593       2.62376497      
    1147.500 118.46861880     9.44923317       2.61163653      
    1148.000 115.26116835     9.44851738       2.60326624      
    1148.500 111.78590572     9.41973000       2.59609167      
    1149.000 108.60547783     9.40908454       2.59679860      
    1149.500 107.68830959     9.40984291       2.60333498      
