~Version Information Block
 VERS.                2.00:     CWLS LOG ASCII STANDARD - VERSION 2.000000
 WRAP.                  NO:     One Line Per Depth Step
#
~Well Information Block
#MNEM.UNIT                     Data                         Information
#----------   ------------------------------------------   ----------------
 STRT.FT                                      150.0000:     START DEPTH
 STOP.FT                                     5250.0000:     STOP DEPTH
 STEP.FT                                        0.5000:     STEP
 NULL.                                       -999.2500:     NULL VALUE
 COMP.           BELDEN & BLAKE & CO LMTD. PARTN. #10A:     COMPANY
 WELL.                                      HICKORY #4:     WELL
 FLD .                                        MAGNOLIA:     FIELD
 LOC .             500'FSL & 500' FWL INSE/Q ON SEC 34:     LOCATION
 LAT .                                    40.611212268:     LATITUDE
 LONG.                                  -81.3085905865:     LONGITUDE
 GDAT.                                           NAD83:     GeoDetic Datum
 TWP .                                            ROSE:     TOWNSHIP
 CNTY.                                         CARROLL:     COUNTY
 STAT.                                              OH:     STATE
 CTRY.                                             USA:     COUNTRY
 SRVC.                                    SCHLUMBERGER:     SERVICE COMPANY
 DATE.                                       8/12/1969:     DATE
 API .                                  34019204780000:     API NUMBER
 UWI .                                  34019204780000:     UWI NUMBER
 TLD .                                            5250:     TOTAL LOG DEPTH
 RDAT.                                              KB:     REFERENCE Datum
 EPD .FT                                          1136:     Elevation Of REF. Datum
 FILE.NM     3401920478_GR-FDC_SCH_120_5227_Y_106_TH45:     FILE NAME
 WSTA.                                             LOC:     Well status
#
~Curve Information Block
#MNEM.UNIT       API CODE      Curve Description
#----------    -------------   -------------------
 DEPT.FT                   :   Depth in Feet
 GR  .         35 310 01 01:   Gamma Ray
 CALI.IN       70 280 01 01:   Caliper
 RHOB.G/C3     42 350 01 01:   Bulk Density
#
~Parameter Information Block
#MNEM.UNIT            Value               Description
#----------    --------------------    -------------------
 RUN .                         ONE:    Run Number
 PDAT.                            :    Permanent Datum
 EPD .FT                    0.0000:    Elevation Of Perm. Datum
 WSTA.                         LOC:    
 E   .FT                    0.0000:    E (Stretch Coefficient Of The Cable)
 TD  .FT                 5250.0000:    Total Depth
#
~Other Information Block
<DescLogPlotStart>   NEURALOG PLOT DEFINITION
PLOTDEFVERSION: 3
LASFILE: S:\Images\GeoPhysRasterLogs\Holding\LAS FILES\3401920478_GR-FDC_SCH_12
DEPTHSCALE: 240.000000
RESOLUTION: 200
DEPTHLABELFREQ: 100.000000
HEAVYGRIDFREQ: 100.000000
MEDIUMGRIDFREQ: 50.000000
LIGHTGRIDFREQ: 10.000000
#
#   TRACK 1
#
STARTTRACK: 
 LEFTX: 0.500000 inch
 RIGHTX: 3.000000 inch
 SCALETYPE: Linear
 NUMCHARTDIVISIONS: 10
CURVE: CALI  6.000000   16.000000  (0,131,131)    Dot               2     N    
CURVE: GR    0.000000   200.000000 (0,0,255)      Solid             2     N    
ENDTRACK: 
#
#   TRACK 2
#
STARTTRACK: 
 LEFTX: 3.500000 inch
 RIGHTX: 8.500000 inch
 SCALETYPE: Linear
 NUMCHARTDIVISIONS: 10
CURVE: RHOB  2.000000   3.000000   (255,0,255)    Solid             2     Y    
BACKUP: 1.000000   2.000000   (255,0,255)    Solid             2    
ENDTRACK: 
<DescLogPlotEnd>
~A DEPTH     GR               CALI             RHOB            
# ...
    4962.500 70.26397214      9.33893094       2.79772926      
    4963.000 73.53190398      9.34268822       2.77054108      
    4963.500 79.17409478      9.34644549       2.75731727      
    4964.000 89.18814692      9.35020277       2.75280760      
    4964.500 102.34572876     9.35385544       2.75450888      
    4965.000 125.11953555     9.35835328       2.73742758      
    4965.500 148.13537632     9.35728257       2.70486970      
    4966.000 169.71450038     9.50378922       2.68079547      
    4966.500 177.58821745     9.66256804       2.67443516      
    4967.000 173.77014324     9.86124016       2.66972786      
    4967.500 172.81120328     9.93307371       2.63940797      
    4968.000 175.29998880     10.10043419      2.59191270      
    4968.500 179.23968144     10.46275319      2.57847777      
    4969.000 181.85377663     10.73402491      2.59483959      
    4969.500 179.54338801     10.69947280      2.58374970      
    4970.000 175.83850380     10.82380822      2.56342575      
    4970.500 178.59017192     10.84495214      2.55547017      
    4971.000 181.63258755     11.00299890      2.54826073      
    4971.500 183.74158864     11.00276844      2.55664736      
    4972.000 185.11410272     11.05038554      2.55875196      
    4972.500 182.84355865     10.89520564      2.55140499      
    4973.000 178.68008466     10.71451443      2.56445763      
    4973.500 175.76700237     10.64125115      2.58501319      
    4974.000 177.62297112     10.80621646      2.59072958      
    4974.500 180.36222065     10.94997578      2.57597328      
    4975.000 179.51922411     10.95338031      2.58906140      
    4975.500 177.09407258     10.82946154      2.60135520      
    4976.000 174.71807240     10.86199975      2.60694118      
    4976.500 171.51564209     10.55550748      2.59062028      
    4977.000 167.42620057     10.34746653      2.56597425      
    4977.500 165.79387041     10.41626469      2.56332893      
    4978.000 165.33557691     10.42771329      2.58355014      
    4978.500 167.35636581     10.73773198      2.56638071      
    4979.000 170.19938401     10.85853141      2.56257399      
    4979.500 176.41564288     10.91202892      2.56176092      
    4980.000 178.48070557     10.98607783      2.55765114      
    4980.500 176.53291486     11.07099394      2.55580429      
    4981.000 172.24223762     11.06839455      2.56432004      
    4981.500 169.55372256     10.59175227      2.58483758      
    4982.000 168.85496769     10.11066356      2.59009061      
    4982.500 167.44992635     10.14616960      2.56146085      
    4983.000 168.47353875     10.12293622      2.57139961      
    4983.500 170.67270296     10.35106677      2.54799342      
    4984.000 171.28399717     10.62085962      2.51381914      
    4984.500 169.15324417     10.72709061      2.52865160      
    4985.000 167.67107145     10.83729935      2.54084873      
    4985.500 164.20096019     10.88916944      2.58138704      
    4986.000 161.21193697     10.93727832      2.61404209      
    4986.500 158.68106690     10.97826528      2.59507588      
    4987.000 156.09618701     10.74379186      2.58954898      
    4987.500 153.58222130     10.13995916      2.61249857      
    4988.000 143.35637523     10.01792550      2.64038409      
    4988.500 119.26015440     9.68431765       2.65968965      
    4989.000 100.37830094     9.35226581       2.67660193      
    4989.500 82.07503100      9.31139615       2.69305459      
    4990.000 66.66685290      9.29970668       2.69991324      
    4990.500 64.71811039      9.28709070       2.70724073      
    4991.000 64.22404404      9.27396215       2.70726242      
    4991.500 62.53181913      9.26081095       2.69735370      
    4992.000 60.94876348      9.24765975       2.70724722      
    4992.500 60.88995755      9.23450855       2.70627136      
    4993.000 62.04344407      9.22135735       2.70780086      
    4993.500 64.58977822      9.20820615       2.70760489      
    4994.000 69.80667592      9.19505495       2.70087137      
    4994.500 69.89255155      9.18190374       2.70801608      
    4995.000 66.71155625      9.16875254       2.70803529      
    4995.500 62.74611800      9.15558934       2.69734186      
    4996.000 54.51697556      9.14245312       2.69082485      
    4996.500 51.18978950      9.12908911       2.68094083      
    4997.000 47.20466093      9.12848986       2.69322512      
    4997.500 45.20536045      9.13341572       2.71057594      
    4998.000 43.96549419      9.13849674       2.71943974      
    4998.500 42.39448336      9.14356200       2.72954680      
    4999.000 41.88308451      9.14861548       2.74640034      
    4999.500 41.80047042      9.15366896       2.75724115      
    5000.000 41.11423572      9.15872244       2.75629271      
    5000.500 41.54827905      9.16377591       2.75551088      
    5001.000 42.26448529      9.16882939       2.75769137      
    5001.500 43.27867269      9.17388287       2.75062512      
    5002.000 49.69657860      9.17893635       2.73867192      
    5002.500 56.41902397      9.18398983       2.72678227      
    5003.000 57.58469801      9.18904330       2.74145373      
    5003.500 52.30758925      9.19409678       2.71823505      
    5004.000 47.94236733      9.19915026       2.70838729      
    5004.500 46.12931607      9.20420374       2.72643643      
    5005.000 47.83024584      9.20925722       2.73705157      
    5005.500 50.51316253      9.21431069       2.74995999      
    5006.000 50.41248349      9.21936417       2.74947276      
    5006.500 41.42891570      9.22441765       2.71502251      
    5007.000 31.57742275      9.22947113       2.70337661      
    5007.500 26.75033550      9.23452461       2.71175143      
    5008.000 25.90582722      9.23957809       2.75121276      
    5008.500 27.23762224      9.24463156       2.78743760      
    5009.000 26.39795751      9.24968504       2.79385860      
    5009.500 24.46675775      9.25473852       2.78327235      
    5010.000 24.77353771      9.25979200       2.75585769      
    5010.500 25.78673965      9.26484548       2.73508057      
    5011.000 26.52144664      9.26989895       2.72997562      
    5011.500 27.21975152      9.27495243       2.73260226      
    5012.000 26.08230800      9.28000591       2.75442792      
    5012.500 25.79728344      9.28505939       2.76137605      
    5013.000 25.52330210      9.29011287       2.74209536      
    5013.500 26.53045902      9.29516634       2.71661874      
    5014.000 28.66411091      9.30021982       2.71846818      
    5014.500 32.77289922      9.30527330       2.72079984      
    5015.000 37.21662832      9.31032678       2.73760192      
    5015.500 43.65966644      9.31538026       2.72602119      
    5016.000 59.73396382      9.32043373       2.71000921      
    5016.500 78.62598747      9.32548721       2.74387723      
    5017.000 102.61913023     9.33039115       2.75544986      
    5017.500 124.98345885     9.33541171       2.67441438      
    5018.000 134.83777358     9.34196121       2.63428447      
    5018.500 138.20279266     9.41852561       2.63199718      
    5019.000 135.82839833     9.57590224       2.66412572      
    5019.500 123.18399226     9.73121632       2.69929373      
    5020.000 107.25956322     9.58300140       2.76121635      
    5020.500 77.60164399      9.40974181       2.89581256      
    5021.000 46.19629184      9.23628155       2.92671984      
    5021.500 32.79211317      9.16615181       3.00310874      
    5022.000 31.28460045      9.16545821       2.99983388      
    5022.500 34.26387016      9.16623779       2.99947700      
    5023.000 39.42508132      9.16704015       2.99992732      
    5023.500 47.76961564      9.16769893       3.00251003      
    5024.000 60.25928582      9.16835771       2.87232035      
    5024.500 67.92902419      9.16901650       2.81808698      
